<?xml version="1.0" encoding="utf-8"?>
<kml xmlns="http://www.opengis.net/kml/2.2" xmlns:kml="http://www.opengis.net/kml/2.2" xmlns:gx="http://www.google.com/kml/ext/2.2" xmlns:atom="http://www.w3.org/2005/Atom"><Document><Snippet maxLines="0"/><Placemark><name>鹊山招摇山1-1-1</name><Snippet maxLines="0"/><Point><coordinates>105.6759,23.61161,0</coordinates></Point></Placemark><Placemark><name>堂庭山1-1-2</name><Snippet maxLines="0"/><Point><coordinates>107.1433,23.08145,0</coordinates></Point></Placemark><Placemark><name>猨翼山1-1-3</name><Snippet maxLines="0"/><Point><coordinates>108.4785,22.74757,0</coordinates></Point></Placemark><Placemark><name>杻阳山1-1-4</name><Snippet maxLines="0"/><Point><coordinates>109.2695,22.41536,0</coordinates></Point></Placemark><Placemark><name>柢山1-1-5</name><Snippet maxLines="0"/><Point><coordinates>110.8419,22.98104,0</coordinates></Point></Placemark><Placemark><name>亶爰山1-1-6</name><Snippet maxLines="0"/><Point><coordinates>112.0368,22.92595,0</coordinates></Point></Placemark><Placemark><name>基山1-1-7</name><Snippet maxLines="0"/><Point><coordinates>113.247,23.12203,0</coordinates></Point></Placemark><Placemark><name>青丘山1-1-8</name><Snippet maxLines="0"/><Point><coordinates>114.704,23.75711,0</coordinates></Point></Placemark><Placemark><name>箕尾山1-1-9</name><Snippet maxLines="0"/><Point><coordinates>116.1823,23.74882,0</coordinates></Point></Placemark><Placemark><name>柜山1-2-1</name><Snippet maxLines="0"/><Point><coordinates>112.1027,25.40507,0</coordinates></Point></Placemark><Placemark><name>长右山1-2-2</name><Snippet maxLines="0"/><Point><coordinates>113.3513,25.13071,0</coordinates></Point></Placemark><Placemark><name>尧光山1-2-3</name><Snippet maxLines="0"/><Point><coordinates>113.9485,26.07693,0</coordinates></Point></Placemark><Placemark><name>羽山1-2-4</name><Snippet maxLines="0"/><Point><coordinates>115.3338,26.08484,0</coordinates></Point></Placemark><Placemark><name>瞿父山1-2-5</name><Snippet maxLines="0"/><Point><coordinates>116.38,27.28904,0</coordinates></Point></Placemark><Placemark><name>句余山1-2-6</name><Snippet maxLines="0"/><Point><coordinates>116.6553,27.88041,0</coordinates></Point></Placemark><Placemark><name>浮玉山1-2-7</name><Snippet maxLines="0"/><Point><coordinates>117.9962,28.8104,0</coordinates></Point></Placemark><Placemark><name>成山1-2-8</name><Snippet maxLines="0"/><Point><coordinates>119.2798,29.47036,0</coordinates></Point></Placemark><Placemark><name>会稽山1-2-9</name><Snippet maxLines="0"/><Point><coordinates>120.5748,29.99505,0</coordinates></Point></Placemark><Placemark><name>夷山1-2-10</name><Snippet maxLines="0"/><Point><coordinates>117.4873,27.33666,0</coordinates></Point></Placemark><Placemark><name>仆勾山1-2-11</name><Snippet maxLines="0"/><Point><coordinates>118.5325,27.92018,0</coordinates></Point></Placemark><Placemark><name>咸阴山1-2-12</name><Snippet maxLines="0"/><Point><coordinates>119.9296,28.46171,0</coordinates></Point></Placemark><Placemark><name>洵山1-2-13</name><Snippet maxLines="0"/><Point><coordinates>121.1337,28.84794,0</coordinates></Point></Placemark><Placemark><name>虖勺山1-2-14</name><Snippet maxLines="0"/><Point><coordinates>116.6266,25.36231,0</coordinates></Point></Placemark><Placemark><name>区吴山1-2-15</name><Snippet maxLines="0"/><Point><coordinates>117.682,24.50431,0</coordinates></Point></Placemark><Placemark><name>鹿吴山1-2-16</name><Snippet maxLines="0"/><Point><coordinates>119.0097,25.43118,0</coordinates></Point></Placemark><Placemark><name>漆吴山1-2-17</name><Snippet maxLines="0"/><Point><coordinates>119.5318,26.65883,0</coordinates></Point></Placemark><Placemark><name>天下虞山1-3-1</name><Snippet maxLines="0"/><Point><coordinates>108.0785,26.38432,0</coordinates></Point></Placemark><Placemark><name>祷过山1-3-2</name><Snippet maxLines="0"/><Point><coordinates>109.7825,26.15915,0</coordinates></Point></Placemark><Placemark><name>丹穴山1-3-3</name><Snippet maxLines="0"/><Point><coordinates>110.8675,26.17034,0</coordinates></Point></Placemark><Placemark><name>发爽山1-3-4</name><Snippet maxLines="0"/><Point><coordinates>111.8311,26.17084,0</coordinates></Point></Placemark><Placemark><name>旄山1-3-5</name><Snippet maxLines="0"/><Point><coordinates>112.8513,26.41417,0</coordinates></Point></Placemark><Placemark><name>非山1-3-6</name><Snippet maxLines="0"/><Point><coordinates>113.8403,27.63919,0</coordinates></Point></Placemark><Placemark><name>阳夹山1-3-7</name><Snippet maxLines="0"/><Point><coordinates>114.9256,28.23564,0</coordinates></Point></Placemark><Placemark><name>灌湘山1-3-8</name><Snippet maxLines="0"/><Point><coordinates>115.8694,28.68741,0</coordinates></Point></Placemark><Placemark><name>鸡山1-3-9</name><Snippet maxLines="0"/><Point><coordinates>116.673,28.98914,0</coordinates></Point></Placemark><Placemark><name>令丘山1-3-10</name><Snippet maxLines="0"/><Point><coordinates>117.2518,29.37253,0</coordinates></Point></Placemark><Placemark><name>仑者山1-3-11</name><Snippet maxLines="0"/><Point><coordinates>117.8589,29.25885,0</coordinates></Point></Placemark><Placemark><name>禺槀山1-3-12</name><Snippet maxLines="0"/><Point><coordinates>119.0843,29.56204,0</coordinates></Point></Placemark><Placemark><name>南禺山1-3-13</name><Snippet maxLines="0"/><Point><coordinates>119.9903,30.39278,0</coordinates></Point></Placemark><Placemark><name>华山钱来山2-1-1</name><Snippet maxLines="0"/><Point><coordinates>110.8933,34.5292,0</coordinates></Point></Placemark><Placemark><name>松果山2-1-2</name><Snippet maxLines="0"/><Point><coordinates>110.3916,34.46746,0</coordinates></Point></Placemark><Placemark><name>太华山2-1-3</name><Snippet maxLines="0"/><Point><coordinates>110.0842,34.48076,0</coordinates></Point></Placemark><Placemark><name>小华山2-1-4</name><Snippet maxLines="0"/><Point><coordinates>109.7664,34.50652,0</coordinates></Point></Placemark><Placemark><name>符禺山2-1-5</name><Snippet maxLines="0"/><Point><coordinates>109.502,34.5004,0</coordinates></Point></Placemark><Placemark><name>石脆山2-1-6</name><Snippet maxLines="0"/><Point><coordinates>109.3225,34.15121,0</coordinates></Point></Placemark><Placemark><name>英山2-1-7</name><Snippet maxLines="0"/><Point><coordinates>108.6033,34.10799,0</coordinates></Point></Placemark><Placemark><name>竹山2-1-8</name><Snippet maxLines="0"/><Point><coordinates>108.2221,34.16357,0</coordinates></Point></Placemark><Placemark><name>浮山2-1-9</name><Snippet maxLines="0"/><Point><coordinates>107.7514,34.2738,0</coordinates></Point></Placemark><Placemark><name>羭次山2-1-10</name><Snippet maxLines="0"/><Point><coordinates>107.4691,34.30535,0</coordinates></Point></Placemark><Placemark><name>时山2-1-11</name><Snippet maxLines="0"/><Point><coordinates>107.2258,34.34205,0</coordinates></Point></Placemark><Placemark><name>南山2-1-12</name><Snippet maxLines="0"/><Point><coordinates>105.8998,34.55416,0</coordinates></Point></Placemark><Placemark><name>大时山2-1-13</name><Snippet maxLines="0"/><Point><coordinates>104.186,34.74838,0</coordinates></Point></Placemark><Placemark><name>嶓冢山2-1-14</name><Snippet maxLines="0"/><Point><coordinates>102.0769,33.99754,0</coordinates></Point></Placemark><Placemark><name>天帝山2-1-15</name><Snippet maxLines="0"/><Point><coordinates>99.90391,33.96678,0</coordinates></Point></Placemark><Placemark><name>皋涂山2-1-16</name><Snippet maxLines="0"/><Point><coordinates>97.45691,33.69612,0</coordinates></Point></Placemark><Placemark><name>黄山2-1-17</name><Snippet maxLines="0"/><Point><coordinates>96.13958,34.4456,0</coordinates></Point></Placemark><Placemark><name>翠山2-1-18</name><Snippet maxLines="0"/><Point><coordinates>95.26514,34.9546,0</coordinates></Point></Placemark><Placemark><name>騩山2-1-19</name><Snippet maxLines="0"/><Point><coordinates>93.5533,35.71969,0</coordinates></Point></Placemark><Placemark><name>钤山2-2-1</name><Snippet maxLines="0"/><Point><coordinates>110.2659,36.33497,0</coordinates></Point></Placemark><Placemark><name>泰冒山2-2-2</name><Snippet maxLines="0"/><Point><coordinates>110.1283,35.68059,0</coordinates></Point></Placemark><Placemark><name>数历山2-2-3</name><Snippet maxLines="0"/><Point><coordinates>109.6996,35.36104,0</coordinates></Point></Placemark><Placemark><name>高山2-2-4</name><Snippet maxLines="0"/><Point><coordinates>109.4041,35.13106,0</coordinates></Point></Placemark><Placemark><name>女床山2-2-5</name><Snippet maxLines="0"/><Point><coordinates>107.7952,34.67793,0</coordinates></Point></Placemark><Placemark><name>龙首山2-2-6</name><Snippet maxLines="0"/><Point><coordinates>106.8574,34.8929,0</coordinates></Point></Placemark><Placemark><name>鹿台山2-2-7</name><Snippet maxLines="0"/><Point><coordinates>105.671,34.86049,0</coordinates></Point></Placemark><Placemark><name>鸟危山2-2-8</name><Snippet maxLines="0"/><Point><coordinates>105.0423,35.34164,0</coordinates></Point></Placemark><Placemark><name>小次山2-2-9</name><Snippet maxLines="0"/><Point><coordinates>103.8388,36.05389,0</coordinates></Point></Placemark><Placemark><name>大次山2-2-10</name><Snippet maxLines="0"/><Point><coordinates>101.7751,36.61046,0</coordinates></Point></Placemark><Placemark><name>薰吴山2-2-11</name><Snippet maxLines="0"/><Point><coordinates>99.77592,36.73066,0</coordinates></Point></Placemark><Placemark><name>厎阳山2-2-12</name><Snippet maxLines="0"/><Point><coordinates>97.3603,37.39016,0</coordinates></Point></Placemark><Placemark><name>众兽山2-2-13</name><Snippet maxLines="0"/><Point><coordinates>95.55253,37.31751,0</coordinates></Point></Placemark><Placemark><name>皇人山2-2-14</name><Snippet maxLines="0"/><Point><coordinates>101.6133,37.37554,0</coordinates></Point></Placemark><Placemark><name>中皇山2-2-15</name><Snippet maxLines="0"/><Point><coordinates>100.2514,38.17625,0</coordinates></Point></Placemark><Placemark><name>西皇山2-2-16</name><Snippet maxLines="0"/><Point><coordinates>99.12931,38.1374,0</coordinates></Point></Placemark><Placemark><name>莱山2-2-17</name><Snippet maxLines="0"/><Point><coordinates>96.02076,39.81006,0</coordinates></Point></Placemark><Placemark><name>崇吾山2-3-1</name><Snippet maxLines="0"/><Point><coordinates>105.293,36.81006,0</coordinates></Point></Placemark><Placemark><name>长沙山2-3-2</name><Snippet maxLines="0"/><Point><coordinates>102.185,38.52199,0</coordinates></Point></Placemark><Placemark><name>不周山2-3-3</name><Snippet maxLines="0"/><Point><coordinates>101.0602,41.95765,0</coordinates></Point></Placemark><Placemark><name>峚山2-3-4</name><Snippet maxLines="0"/><Point><coordinates>93.51194,42.81824,0</coordinates></Point></Placemark><Placemark><name>钟山2-3-5</name><Snippet maxLines="0"/><Point><coordinates>87.6131,43.8264,0</coordinates></Point></Placemark><Placemark><name>泰器山2-3-6</name><Snippet maxLines="0"/><Point><coordinates>90.3796,46.67493,0</coordinates></Point></Placemark><Placemark><name>槐江山2-3-7</name><Snippet maxLines="0"/><Point><coordinates>87.43979,48.571,0</coordinates></Point></Placemark><Placemark><name>昆仑丘2-3-8</name><Snippet maxLines="0"/><Point><coordinates>82.98196,46.20204,0</coordinates></Point></Placemark><Placemark><name>乐游山2-3-9</name><Snippet maxLines="0"/><Point><coordinates>80.2625,41.16946,0</coordinates></Point></Placemark><Placemark><name>蠃母山2-3-10</name><Snippet maxLines="0"/><Point><coordinates>75.3288,38.46175,0</coordinates></Point></Placemark><Placemark><name>玉山2-3-11</name><Snippet maxLines="0"/><Point><coordinates>76.57395,35.61512,0</coordinates></Point></Placemark><Placemark><name>轩辕丘2-3-12</name><Snippet maxLines="0"/><Point><coordinates>71.83335,36.26278,0</coordinates></Point></Placemark><Placemark><name>积石山2-3-13</name><Snippet maxLines="0"/><Point><coordinates>66.13163,34.25736,0</coordinates></Point></Placemark><Placemark><name>长留山2-3-14</name><Snippet maxLines="0"/><Point><coordinates>63.13297,34.98708,0</coordinates></Point></Placemark><Placemark><name>章莪山2-3-15</name><Snippet maxLines="0"/><Point><coordinates>60.26502,33.72973,0</coordinates></Point></Placemark><Placemark><name>阴山2-3-16</name><Snippet maxLines="0"/><Point><coordinates>57.09546,30.29788,0</coordinates></Point></Placemark><Placemark><name>符惕山2-3-17</name><Snippet maxLines="0"/><Point><coordinates>51.64624,32.65871,0</coordinates></Point></Placemark><Placemark><name>三危山2-3-18</name><Snippet maxLines="0"/><Point><coordinates>47.06495,34.33518,0</coordinates></Point></Placemark><Placemark><name>騩山2-3-19</name><Snippet maxLines="0"/><Point><coordinates>47.69578,38.28648,0</coordinates></Point></Placemark><Placemark><name>天山2-3-20</name><Snippet maxLines="0"/><Point><coordinates>41.94274,38.92846,0</coordinates></Point></Placemark><Placemark><name>泑山2-3-21</name><Snippet maxLines="0"/><Point><coordinates>32.84744,39.93867,0</coordinates></Point></Placemark><Placemark><name>翼望山2-3-22</name><Snippet maxLines="0"/><Point><coordinates>30.5387,38.75693,0</coordinates></Point></Placemark><Placemark><name>阴山2-4-1</name><Snippet maxLines="0"/><Point><coordinates>109.38,35.98843,0</coordinates></Point></Placemark><Placemark><name>劳山2-4-2</name><Snippet maxLines="0"/><Point><coordinates>109.0632,36.59596,0</coordinates></Point></Placemark><Placemark><name>罢父山2-4-3</name><Snippet maxLines="0"/><Point><coordinates>108.5043,37.1781,0</coordinates></Point></Placemark><Placemark><name>申山2-4-4</name><Snippet maxLines="0"/><Point><coordinates>108.8325,38.59729,0</coordinates></Point></Placemark><Placemark><name>鸟山2-4-5</name><Snippet maxLines="0"/><Point><coordinates>109.8337,40.66059,0</coordinates></Point></Placemark><Placemark><name>上申山2-4-6</name><Snippet maxLines="0"/><Point><coordinates>109.3516,42.23051,0</coordinates></Point></Placemark><Placemark><name>诸次山2-4-7</name><Snippet maxLines="0"/><Point><coordinates>106.2692,45.76345,0</coordinates></Point></Placemark><Placemark><name>号山2-4-8</name><Snippet maxLines="0"/><Point><coordinates>101.0987,46.91304,0</coordinates></Point></Placemark><Placemark><name>盂山2-4-9</name><Snippet maxLines="0"/><Point><coordinates>103.2904,50.39829,0</coordinates></Point></Placemark><Placemark><name>白於山2-4-10</name><Snippet maxLines="0"/><Point><coordinates>101.1969,53.68425,0</coordinates></Point></Placemark><Placemark><name>申首山2-4-11</name><Snippet maxLines="0"/><Point><coordinates>95.76695,54.2401,0</coordinates></Point></Placemark><Placemark><name>泾谷山2-4-12</name><Snippet maxLines="0"/><Point><coordinates>88.34843,54.55191,0</coordinates></Point></Placemark><Placemark><name>刚山2-4-13</name><Snippet maxLines="0"/><Point><coordinates>85.95066,51.96939,0</coordinates></Point></Placemark><Placemark><name>刚山尾2-4-14</name><Snippet maxLines="0"/><Point><coordinates>78.93864,52.56649,0</coordinates></Point></Placemark><Placemark><name>英鞮山2-4-15</name><Snippet maxLines="0"/><Point><coordinates>71.46519,51.16573,0</coordinates></Point></Placemark><Placemark><name>中曲山2-4-16</name><Snippet maxLines="0"/><Point><coordinates>63.49598,49.65268,0</coordinates></Point></Placemark><Placemark><name>邽山2-4-17</name><Snippet maxLines="0"/><Point><coordinates>58.91606,49.42007,0</coordinates></Point></Placemark><Placemark><name>鸟鼠同穴山2-4-18</name><Snippet maxLines="0"/><Point><coordinates>56.91998,57.43215,0</coordinates></Point></Placemark><Placemark><name>崦嵫山2-4-19</name><Snippet maxLines="0"/><Point><coordinates>44.65924,43.02943,0</coordinates></Point></Placemark><Placemark><name>单狐山3-1-1</name><Snippet maxLines="0"/><Point><coordinates>110.7125,35.59367,0</coordinates></Point></Placemark><Placemark><name>求如山3-1-2</name><Snippet maxLines="0"/><Point><coordinates>110.6826,36.09869,0</coordinates></Point></Placemark><Placemark><name>带山3-1-3</name><Snippet maxLines="0"/><Point><coordinates>111.1826,36.98229,0</coordinates></Point></Placemark><Placemark><name>谯明山3-1-4</name><Snippet maxLines="0"/><Point><coordinates>111.1163,38.17119,0</coordinates></Point></Placemark><Placemark><name>涿光山3-1-5</name><Snippet maxLines="0"/><Point><coordinates>111.0817,39.02103,0</coordinates></Point></Placemark><Placemark><name>虢山3-1-6</name><Snippet maxLines="0"/><Point><coordinates>111.6694,39.91582,0</coordinates></Point></Placemark><Placemark><name>虢山尾3-1-7</name><Snippet maxLines="0"/><Point><coordinates>111.6885,40.82606,0</coordinates></Point></Placemark><Placemark><name>丹熏山3-1-8</name><Snippet maxLines="0"/><Point><coordinates>111.3086,41.18596,0</coordinates></Point></Placemark><Placemark><name>石者山3-1-9</name><Snippet maxLines="0"/><Point><coordinates>111.7048,41.52208,0</coordinates></Point></Placemark><Placemark><name>边春山3-1-10</name><Snippet maxLines="0"/><Point><coordinates>111.695,41.75835,0</coordinates></Point></Placemark><Placemark><name>蔓联山3-1-11</name><Snippet maxLines="0"/><Point><coordinates>112.5628,42.20739,0</coordinates></Point></Placemark><Placemark><name>单张山3-1-12</name><Snippet maxLines="0"/><Point><coordinates>112.6549,42.74541,0</coordinates></Point></Placemark><Placemark><name>灌题山3-1-13</name><Snippet maxLines="0"/><Point><coordinates>112.1219,43.47163,0</coordinates></Point></Placemark><Placemark><name>潘侯山3-1-14</name><Snippet maxLines="0"/><Point><coordinates>112.1098,43.84306,0</coordinates></Point></Placemark><Placemark><name>小咸山3-1-15</name><Snippet maxLines="0"/><Point><coordinates>110.1355,44.90518,0</coordinates></Point></Placemark><Placemark><name>大咸山3-1-16</name><Snippet maxLines="0"/><Point><coordinates>109.2507,46.62997,0</coordinates></Point></Placemark><Placemark><name>敦薨山3-1-17</name><Snippet maxLines="0"/><Point><coordinates>108.3313,48.67088,0</coordinates></Point></Placemark><Placemark><name>少咸山3-1-18</name><Snippet maxLines="0"/><Point><coordinates>109.2747,50.13102,0</coordinates></Point></Placemark><Placemark><name>狱法山3-1-19</name><Snippet maxLines="0"/><Point><coordinates>113.4695,52.05702,0</coordinates></Point></Placemark><Placemark><name>北岳山3-1-20</name><Snippet maxLines="0"/><Point><coordinates>114.1953,57.85135,0</coordinates></Point></Placemark><Placemark><name>浑夕山3-1-21</name><Snippet maxLines="0"/><Point><coordinates>102.5919,61.43261,0</coordinates></Point></Placemark><Placemark><name>北单山3-1-22</name><Snippet maxLines="0"/><Point><coordinates>100.3136,63.03605,0</coordinates></Point></Placemark><Placemark><name>罴差山3-1-23</name><Snippet maxLines="0"/><Point><coordinates>100.3369,67.55744,0</coordinates></Point></Placemark><Placemark><name>北鲜山3-1-24</name><Snippet maxLines="0"/><Point><coordinates>106.687,72.13958,0</coordinates></Point></Placemark><Placemark><name>隄山3-1-25</name><Snippet maxLines="0"/><Point><coordinates>95.15394,75.26323,0</coordinates></Point></Placemark><Placemark><name>管涔山3-2-1</name><Snippet maxLines="0"/><Point><coordinates>112.0735,38.94927,0</coordinates></Point></Placemark><Placemark><name>少阳山3-2-2</name><Snippet maxLines="0"/><Point><coordinates>111.6556,38.95588,0</coordinates></Point></Placemark><Placemark><name>县雍山3-2-3</name><Snippet maxLines="0"/><Point><coordinates>111.6265,39.16622,0</coordinates></Point></Placemark><Placemark><name>狐岐山3-2-4</name><Snippet maxLines="0"/><Point><coordinates>112.0401,39.73261,0</coordinates></Point></Placemark><Placemark><name>白沙山3-2-5</name><Snippet maxLines="0"/><Point><coordinates>112.4956,40.53169,0</coordinates></Point></Placemark><Placemark><name>尔是山3-2-6</name><Snippet maxLines="0"/><Point><coordinates>112.5938,41.14834,0</coordinates></Point></Placemark><Placemark><name>狂山3-2-7</name><Snippet maxLines="0"/><Point><coordinates>112.6673,41.8143,0</coordinates></Point></Placemark><Placemark><name>诸余山3-2-8</name><Snippet maxLines="0"/><Point><coordinates>112.9032,42.4005,0</coordinates></Point></Placemark><Placemark><name>敦头山3-2-9</name><Snippet maxLines="0"/><Point><coordinates>113.6567,43.8533,0</coordinates></Point></Placemark><Placemark><name>钩吾山3-2-10</name><Snippet maxLines="0"/><Point><coordinates>113.9084,45.2398,0</coordinates></Point></Placemark><Placemark><name>北嚣山3-2-11</name><Snippet maxLines="0"/><Point><coordinates>115.7803,49.14573,0</coordinates></Point></Placemark><Placemark><name>梁渠山3-2-12</name><Snippet maxLines="0"/><Point><coordinates>119.9052,51.35479,0</coordinates></Point></Placemark><Placemark><name>姑灌山3-2-13</name><Snippet maxLines="0"/><Point><coordinates>124.6897,56.67297,0</coordinates></Point></Placemark><Placemark><name>湖灌山3-2-14</name><Snippet maxLines="0"/><Point><coordinates>129.7417,62.03975,0</coordinates></Point></Placemark><Placemark><name>洹山3-2-15</name><Snippet maxLines="0"/><Point><coordinates>147.0803,65.16911,0</coordinates></Point></Placemark><Placemark><name>敦题山3-2-16</name><Snippet maxLines="0"/><Point><coordinates>140.2283,70.53719,0</coordinates></Point></Placemark><Placemark><name>归山3-3-1</name><Snippet maxLines="0"/><Point><coordinates>112.4138,35.4863,0</coordinates></Point></Placemark><Placemark><name>龙侯山3-3-2</name><Snippet maxLines="0"/><Point><coordinates>113.2686,35.54988,0</coordinates></Point></Placemark><Placemark><name>马成山3-3-3</name><Snippet maxLines="0"/><Point><coordinates>113.5646,36.0314,0</coordinates></Point></Placemark><Placemark><name>咸山3-3-4</name><Snippet maxLines="0"/><Point><coordinates>113.5252,36.24656,0</coordinates></Point></Placemark><Placemark><name>天池山3-3-5</name><Snippet maxLines="0"/><Point><coordinates>113.7807,36.58442,0</coordinates></Point></Placemark><Placemark><name>阳山3-3-6</name><Snippet maxLines="0"/><Point><coordinates>114.4548,36.83086,0</coordinates></Point></Placemark><Placemark><name>贲闻山3-3-7</name><Snippet maxLines="0"/><Point><coordinates>115.6669,37.04362,0</coordinates></Point></Placemark><Placemark><name>王屋山3-3-8</name><Snippet maxLines="0"/><Point><coordinates>115.5746,37.20861,0</coordinates></Point></Placemark><Placemark><name>教山3-3-9</name><Snippet maxLines="0"/><Point><coordinates>115.6878,37.73285,0</coordinates></Point></Placemark><Placemark><name>景山3-3-10</name><Snippet maxLines="0"/><Point><coordinates>116.2564,37.69162,0</coordinates></Point></Placemark><Placemark><name>孟门山3-3-11</name><Snippet maxLines="0"/><Point><coordinates>117.3784,37.59643,0</coordinates></Point></Placemark><Placemark><name>平山3-3-12</name><Snippet maxLines="0"/><Point><coordinates>118.0627,36.81139,0</coordinates></Point></Placemark><Placemark><name>京山3-3-13</name><Snippet maxLines="0"/><Point><coordinates>118.7902,36.85645,0</coordinates></Point></Placemark><Placemark><name>虫尾山3-3-14</name><Snippet maxLines="0"/><Point><coordinates>119.3926,36.84577,0</coordinates></Point></Placemark><Placemark><name>彭毗山3-3-15</name><Snippet maxLines="0"/><Point><coordinates>120.5202,36.88803,0</coordinates></Point></Placemark><Placemark><name>小侯山3-3-16</name><Snippet maxLines="0"/><Point><coordinates>120.9915,36.99871,0</coordinates></Point></Placemark><Placemark><name>泰头山3-3-17</name><Snippet maxLines="0"/><Point><coordinates>122.0484,37.30226,0</coordinates></Point></Placemark><Placemark><name>轩辕山3-3-18</name><Snippet maxLines="0"/><Point><coordinates>122.4575,37.15742,0</coordinates></Point></Placemark><Placemark><name>谒戾山3-3-19</name><Snippet maxLines="0"/><Point><coordinates>120.4228,37.36413,0</coordinates></Point></Placemark><Placemark><name>沮洳山3-3-20</name><Snippet maxLines="0"/><Point><coordinates>121.3951,37.51111,0</coordinates></Point></Placemark><Placemark><name>神囷山3-3-21</name><Snippet maxLines="0"/><Point><coordinates>114.505,37.44073,0</coordinates></Point></Placemark><Placemark><name>发鸠山3-3-22</name><Snippet maxLines="0"/><Point><coordinates>114.1443,38.03297,0</coordinates></Point></Placemark><Placemark><name>少山3-3-23</name><Snippet maxLines="0"/><Point><coordinates>113.3783,37.07907,0</coordinates></Point></Placemark><Placemark><name>锡山3-3-24</name><Snippet maxLines="0"/><Point><coordinates>113.7063,37.60868,0</coordinates></Point></Placemark><Placemark><name>景山3-3-25</name><Snippet maxLines="0"/><Point><coordinates>113.4083,38.08643,0</coordinates></Point></Placemark><Placemark><name>题首山3-3-26</name><Snippet maxLines="0"/><Point><coordinates>113.3671,38.38647,0</coordinates></Point></Placemark><Placemark><name>绣山3-3-27</name><Snippet maxLines="0"/><Point><coordinates>113.2591,38.7227,0</coordinates></Point></Placemark><Placemark><name>松山3-3-28</name><Snippet maxLines="0"/><Point><coordinates>113.5957,39.00068,0</coordinates></Point></Placemark><Placemark><name>敦与山3-3-29</name><Snippet maxLines="0"/><Point><coordinates>113.7651,39.29202,0</coordinates></Point></Placemark><Placemark><name>柘山3-3-30</name><Snippet maxLines="0"/><Point><coordinates>114.2797,39.76474,0</coordinates></Point></Placemark><Placemark><name>维龙山3-3-31</name><Snippet maxLines="0"/><Point><coordinates>115.2497,40.4859,0</coordinates></Point></Placemark><Placemark><name>白马山3-3-32</name><Snippet maxLines="0"/><Point><coordinates>115.8307,40.91265,0</coordinates></Point></Placemark><Placemark><name>空桑山3-3-33</name><Snippet maxLines="0"/><Point><coordinates>116.4637,41.20834,0</coordinates></Point></Placemark><Placemark><name>泰戏山3-3-34</name><Snippet maxLines="0"/><Point><coordinates>116.4856,42.20187,0</coordinates></Point></Placemark><Placemark><name>石山3-3-35</name><Snippet maxLines="0"/><Point><coordinates>118.1791,42.84236,0</coordinates></Point></Placemark><Placemark><name>童戎山3-3-36</name><Snippet maxLines="0"/><Point><coordinates>119.004,42.93449,0</coordinates></Point></Placemark><Placemark><name>高是山3-3-37</name><Snippet maxLines="0"/><Point><coordinates>119.5532,43.25465,0</coordinates></Point></Placemark><Placemark><name>陆山3-3-38</name><Snippet maxLines="0"/><Point><coordinates>121.3093,43.60124,0</coordinates></Point></Placemark><Placemark><name>沂山3-3-39</name><Snippet maxLines="0"/><Point><coordinates>122.005,44.03578,0</coordinates></Point></Placemark><Placemark><name>燕山3-3-40</name><Snippet maxLines="0"/><Point><coordinates>122.0513,44.43981,0</coordinates></Point></Placemark><Placemark><name>饶山3-3-41</name><Snippet maxLines="0"/><Point><coordinates>123.9575,47.31969,0</coordinates></Point></Placemark><Placemark><name>乾山3-3-42</name><Snippet maxLines="0"/><Point><coordinates>121.4763,45.05948,0</coordinates></Point></Placemark><Placemark><name>伦山3-3-43</name><Snippet maxLines="0"/><Point><coordinates>120.4778,45.97228,0</coordinates></Point></Placemark><Placemark><name>碣石山3-3-44</name><Snippet maxLines="0"/><Point><coordinates>119.8742,47.30057,0</coordinates></Point></Placemark><Placemark><name>雁门山3-3-45</name><Snippet maxLines="0"/><Point><coordinates>119.7496,49.22171,0</coordinates></Point></Placemark><Placemark><name>帝都山3-3-46</name><Snippet maxLines="0"/><Point><coordinates>121.0607,50.99683,0</coordinates></Point></Placemark><Placemark><name>錞于毋逢山3-3-47</name><Snippet maxLines="0"/><Point><coordinates>124.1193,50.42516,0</coordinates></Point></Placemark><Placemark><name>樕鼄山4-1-1</name><Snippet maxLines="0"/><Point><coordinates>136.9633,50.56934,0</coordinates></Point></Placemark><Placemark><name>藟山4-1-2</name><Snippet maxLines="0"/><Point><coordinates>133.53,46.84593,0</coordinates></Point></Placemark><Placemark><name>栒状山4-1-3</name><Snippet maxLines="0"/><Point><coordinates>130.9665,45.29551,0</coordinates></Point></Placemark><Placemark><name>勃亝山4-1-4</name><Snippet maxLines="0"/><Point><coordinates>129.518,44.5817,0</coordinates></Point></Placemark><Placemark><name>番条山4-1-5</name><Snippet maxLines="0"/><Point><coordinates>129.8482,42.96845,0</coordinates></Point></Placemark><Placemark><name>姑儿山4-1-6</name><Snippet maxLines="0"/><Point><coordinates>127.8807,41.73527,0</coordinates></Point></Placemark><Placemark><name>高氏山4-1-7</name><Snippet maxLines="0"/><Point><coordinates>126.1844,41.12325,0</coordinates></Point></Placemark><Placemark><name>岳山4-1-8</name><Snippet maxLines="0"/><Point><coordinates>124.8846,41.32596,0</coordinates></Point></Placemark><Placemark><name>犲山4-1-9</name><Snippet maxLines="0"/><Point><coordinates>124.0981,40.45823,0</coordinates></Point></Placemark><Placemark><name>独山4-1-10</name><Snippet maxLines="0"/><Point><coordinates>130.4188,51.43934,0</coordinates></Point></Placemark><Placemark><name>泰山4-1-11</name><Snippet maxLines="0"/><Point><coordinates>128.9076,47.7282,0</coordinates></Point></Placemark><Placemark><name>竹山4-1-12</name><Snippet maxLines="0"/><Point><coordinates>127.8452,45.59875,0</coordinates></Point></Placemark><Placemark><name>空桑山4-2-1</name><Snippet maxLines="0"/><Point><coordinates>129.9525,45.36477,0</coordinates></Point></Placemark><Placemark><name>曹夕山4-2-2</name><Snippet maxLines="0"/><Point><coordinates>128.3211,44.46511,0</coordinates></Point></Placemark><Placemark><name>峄皋山4-2-3</name><Snippet maxLines="0"/><Point><coordinates>126.7713,42.536,0</coordinates></Point></Placemark><Placemark><name>葛山尾4-2-4</name><Snippet maxLines="0"/><Point><coordinates>125.2756,42.11166,0</coordinates></Point></Placemark><Placemark><name>葛山首4-2-5</name><Snippet maxLines="0"/><Point><coordinates>124.0846,41.92125,0</coordinates></Point></Placemark><Placemark><name>余峨山4-2-6</name><Snippet maxLines="0"/><Point><coordinates>122.0737,41.13633,0</coordinates></Point></Placemark><Placemark><name>杜父山4-2-7</name><Snippet maxLines="0"/><Point><coordinates>120.8749,40.81261,0</coordinates></Point></Placemark><Placemark><name>耿山4-2-8</name><Snippet maxLines="0"/><Point><coordinates>120.3433,40.32813,0</coordinates></Point></Placemark><Placemark><name>卢其山4-2-9</name><Snippet maxLines="0"/><Point><coordinates>119.7561,40.0088,0</coordinates></Point></Placemark><Placemark><name>姑射山4-2-10</name><Snippet maxLines="0"/><Point><coordinates>118.4348,39.73084,0</coordinates></Point></Placemark><Placemark><name>北姑射山4-2-11</name><Snippet maxLines="0"/><Point><coordinates>117.1987,39.13783,0</coordinates></Point></Placemark><Placemark><name>南姑射山4-2-12</name><Snippet maxLines="0"/><Point><coordinates>116.6442,38.70435,0</coordinates></Point></Placemark><Placemark><name>碧山4-2-13</name><Snippet maxLines="0"/><Point><coordinates>116.5799,38.08318,0</coordinates></Point></Placemark><Placemark><name>缑氏山4-2-14</name><Snippet maxLines="0"/><Point><coordinates>116.65,36.93394,0</coordinates></Point></Placemark><Placemark><name>姑逢山4-2-15</name><Snippet maxLines="0"/><Point><coordinates>116.767,36.18105,0</coordinates></Point></Placemark><Placemark><name>鳬丽山4-2-16</name><Snippet maxLines="0"/><Point><coordinates>117.217,35.50537,0</coordinates></Point></Placemark><Placemark><name>䃋山4-2-17</name><Snippet maxLines="0"/><Point><coordinates>118.3564,35.10207,0</coordinates></Point></Placemark><Placemark><name>尸胡山4-3-1</name><Snippet maxLines="0"/><Point><coordinates>127.3293,49.42489,0</coordinates></Point></Placemark><Placemark><name>岐山4-3-2</name><Snippet maxLines="0"/><Point><coordinates>127.1023,47.2463,0</coordinates></Point></Placemark><Placemark><name>诸钩山4-3-3</name><Snippet maxLines="0"/><Point><coordinates>126.3085,45.37624,0</coordinates></Point></Placemark><Placemark><name>中父山4-3-4</name><Snippet maxLines="0"/><Point><coordinates>126.5679,43.86817,0</coordinates></Point></Placemark><Placemark><name>胡射山4-3-5</name><Snippet maxLines="0"/><Point><coordinates>127.4858,42.17088,0</coordinates></Point></Placemark><Placemark><name>孟子山4-3-6</name><Snippet maxLines="0"/><Point><coordinates>128.2942,41.09253,0</coordinates></Point></Placemark><Placemark><name>跂踵山4-3-7</name><Snippet maxLines="0"/><Point><coordinates>124.3477,40.01866,0</coordinates></Point></Placemark><Placemark><name>踇隅山4-3-8</name><Snippet maxLines="0"/><Point><coordinates>124.8837,38.14674,0</coordinates></Point></Placemark><Placemark><name>无皋山4-3-9</name><Snippet maxLines="0"/><Point><coordinates>127.9381,37.33979,0</coordinates></Point></Placemark><Placemark><name>北号山4-4-1</name><Snippet maxLines="0"/><Point><coordinates>129.7011,47.01566,0</coordinates></Point></Placemark><Placemark><name>旄山4-4-2</name><Snippet maxLines="0"/><Point><coordinates>129.0172,45.66162,0</coordinates></Point></Placemark><Placemark><name>东始山4-4-3</name><Snippet maxLines="0"/><Point><coordinates>126.9468,44.41285,0</coordinates></Point></Placemark><Placemark><name>女烝山4-4-4</name><Snippet maxLines="0"/><Point><coordinates>126.0152,43.29887,0</coordinates></Point></Placemark><Placemark><name>钦山4-4-5</name><Snippet maxLines="0"/><Point><coordinates>125.1427,42.88778,0</coordinates></Point></Placemark><Placemark><name>子桐山4-4-6</name><Snippet maxLines="0"/><Point><coordinates>123.4326,41.80501,0</coordinates></Point></Placemark><Placemark><name>剡山4-4-7</name><Snippet maxLines="0"/><Point><coordinates>125.5326,42.67651,0</coordinates></Point></Placemark><Placemark><name>太山4-4-8</name><Snippet maxLines="0"/><Point><coordinates>126.7483,42.97175,0</coordinates></Point></Placemark><Placemark><name>薄山甘枣山5-1-1</name><Snippet maxLines="0"/><Point><coordinates>110.3179,34.64051,0</coordinates></Point></Placemark><Placemark><name>历儿山5-1-2</name><Snippet maxLines="0"/><Point><coordinates>110.4307,34.6667,0</coordinates></Point></Placemark><Placemark><name>渠猪山5-1-3</name><Snippet maxLines="0"/><Point><coordinates>110.4854,34.67935,0</coordinates></Point></Placemark><Placemark><name>葱聋山5-1-4</name><Snippet maxLines="0"/><Point><coordinates>110.664,34.80777,0</coordinates></Point></Placemark><Placemark><name>涹山5-1-5</name><Snippet maxLines="0"/><Point><coordinates>110.8183,34.84666,0</coordinates></Point></Placemark><Placemark><name>脱扈山5-1-6</name><Snippet maxLines="0"/><Point><coordinates>111.3241,35.14088,0</coordinates></Point></Placemark><Placemark><name>金星山5-1-7</name><Snippet maxLines="0"/><Point><coordinates>111.4096,35.21833,0</coordinates></Point></Placemark><Placemark><name>泰威山5-1-8</name><Snippet maxLines="0"/><Point><coordinates>111.7433,35.12418,0</coordinates></Point></Placemark><Placemark><name>橿谷山5-1-9</name><Snippet maxLines="0"/><Point><coordinates>111.8847,35.1185,0</coordinates></Point></Placemark><Placemark><name>吴林山5-1-10</name><Snippet maxLines="0"/><Point><coordinates>112.2813,35.17696,0</coordinates></Point></Placemark><Placemark><name>牛首山5-1-11</name><Snippet maxLines="0"/><Point><coordinates>112.686,35.19022,0</coordinates></Point></Placemark><Placemark><name>霍山5-1-12</name><Snippet maxLines="0"/><Point><coordinates>113.0569,35.20996,0</coordinates></Point></Placemark><Placemark><name>合谷山5-1-13</name><Snippet maxLines="0"/><Point><coordinates>113.231,35.24246,0</coordinates></Point></Placemark><Placemark><name>阴山5-1-14</name><Snippet maxLines="0"/><Point><coordinates>113.5228,35.45059,0</coordinates></Point></Placemark><Placemark><name>鼓镫山5-1-15</name><Snippet maxLines="0"/><Point><coordinates>114.2919,35.7502,0</coordinates></Point></Placemark><Placemark><name>煇诸山5-2-1</name><Snippet maxLines="0"/><Point><coordinates>114.3517,34.79992,0</coordinates></Point></Placemark><Placemark><name>发视山5-2-2</name><Snippet maxLines="0"/><Point><coordinates>114.1892,34.4083,0</coordinates></Point></Placemark><Placemark><name>豪山5-2-3</name><Snippet maxLines="0"/><Point><coordinates>113.7736,34.38629,0</coordinates></Point></Placemark><Placemark><name>鲜山5-2-4</name><Snippet maxLines="0"/><Point><coordinates>113.3792,34.53644,0</coordinates></Point></Placemark><Placemark><name>阳山5-2-5</name><Snippet maxLines="0"/><Point><coordinates>113.0321,34.46401,0</coordinates></Point></Placemark><Placemark><name>昆吾山5-2-6</name><Snippet maxLines="0"/><Point><coordinates>112.7441,34.26558,0</coordinates></Point></Placemark><Placemark><name>葌山5-2-7</name><Snippet maxLines="0"/><Point><coordinates>112.4692,34.14921,0</coordinates></Point></Placemark><Placemark><name>独苏山5-2-8</name><Snippet maxLines="0"/><Point><coordinates>111.8572,34.02276,0</coordinates></Point></Placemark><Placemark><name>蔓渠山5-2-9</name><Snippet maxLines="0"/><Point><coordinates>111.6239,33.77896,0</coordinates></Point></Placemark><Placemark><name>敖岸山5-3-1</name><Snippet maxLines="0"/><Point><coordinates>111.9526,33.63813,0</coordinates></Point></Placemark><Placemark><name>青要山5-3-2</name><Snippet maxLines="0"/><Point><coordinates>112.0533,33.13375,0</coordinates></Point></Placemark><Placemark><name>騩山5-3-3</name><Snippet maxLines="0"/><Point><coordinates>112.1338,33.70857,0</coordinates></Point></Placemark><Placemark><name>宜苏山5-3-4</name><Snippet maxLines="0"/><Point><coordinates>112.3417,33.71906,0</coordinates></Point></Placemark><Placemark><name>和山5-3-5</name><Snippet maxLines="0"/><Point><coordinates>112.7074,33.68832,0</coordinates></Point></Placemark><Placemark><name>鹿蹄山5-4-1</name><Snippet maxLines="0"/><Point><coordinates>113.5275,34.75965,0</coordinates></Point></Placemark><Placemark><name>扶猪山5-4-2</name><Snippet maxLines="0"/><Point><coordinates>113.3874,34.74491,0</coordinates></Point></Placemark><Placemark><name>釐山5-4-3</name><Snippet maxLines="0"/><Point><coordinates>113.1061,34.6584,0</coordinates></Point></Placemark><Placemark><name>箕尾山5-4-4</name><Snippet maxLines="0"/><Point><coordinates>112.696,34.69694,0</coordinates></Point></Placemark><Placemark><name>柄山5-4-5</name><Snippet maxLines="0"/><Point><coordinates>112.3526,35.4902,0</coordinates></Point></Placemark><Placemark><name>白边山5-4-6</name><Snippet maxLines="0"/><Point><coordinates>111.8926,34.31869,0</coordinates></Point></Placemark><Placemark><name>熊耳山5-4-7</name><Snippet maxLines="0"/><Point><coordinates>111.4157,34.14142,0</coordinates></Point></Placemark><Placemark><name>牡山5-4-8</name><Snippet maxLines="0"/><Point><coordinates>110.7186,34.32453,0</coordinates></Point></Placemark><Placemark><name>讙举山5-4-9</name><Snippet maxLines="0"/><Point><coordinates>110.2177,34.32621,0</coordinates></Point></Placemark><Placemark><name>苟床山5-5-1</name><Snippet maxLines="0"/><Point><coordinates>100.1408,37.32437,0</coordinates></Point></Placemark><Placemark><name>首山5-5-2</name><Snippet maxLines="0"/><Point><coordinates>100.621,36.28283,0</coordinates></Point></Placemark><Placemark><name>县斸山5-5-3</name><Snippet maxLines="0"/><Point><coordinates>102.0315,35.93765,0</coordinates></Point></Placemark><Placemark><name>葱聋山5-5-4</name><Snippet maxLines="0"/><Point><coordinates>102.9938,35.49224,0</coordinates></Point></Placemark><Placemark><name>条谷山5-5-5</name><Snippet maxLines="0"/><Point><coordinates>103.8642,35.37416,0</coordinates></Point></Placemark><Placemark><name>超山5-5-6</name><Snippet maxLines="0"/><Point><coordinates>103.8774,35.43304,0</coordinates></Point></Placemark><Placemark><name>成侯山5-5-7</name><Snippet maxLines="0"/><Point><coordinates>105.1991,35.70387,0</coordinates></Point></Placemark><Placemark><name>朝歌山5-5-8</name><Snippet maxLines="0"/><Point><coordinates>106.4642,35.85706,0</coordinates></Point></Placemark><Placemark><name>槐山5-5-9</name><Snippet maxLines="0"/><Point><coordinates>107.7519,35.89919,0</coordinates></Point></Placemark><Placemark><name>历山5-5-10</name><Snippet maxLines="0"/><Point><coordinates>107.8658,35.91401,0</coordinates></Point></Placemark><Placemark><name>尸山5-5-11</name><Snippet maxLines="0"/><Point><coordinates>107.9827,35.88922,0</coordinates></Point></Placemark><Placemark><name>良余山5-5-12</name><Snippet maxLines="0"/><Point><coordinates>108.1992,35.91081,0</coordinates></Point></Placemark><Placemark><name>蛊尾山5-5-13</name><Snippet maxLines="0"/><Point><coordinates>108.5288,35.82898,0</coordinates></Point></Placemark><Placemark><name>升山5-5-14</name><Snippet maxLines="0"/><Point><coordinates>109.1329,35.89345,0</coordinates></Point></Placemark><Placemark><name>阳虚山5-5-15</name><Snippet maxLines="0"/><Point><coordinates>109.3875,35.99962,0</coordinates></Point></Placemark><Placemark><name>平缝山5-6-1</name><Snippet maxLines="0"/><Point><coordinates>112.7503,34.77624,0</coordinates></Point></Placemark><Placemark><name>缟羝山5-6-2</name><Snippet maxLines="0"/><Point><coordinates>112.6265,34.81407,0</coordinates></Point></Placemark><Placemark><name>廆山5-6-3</name><Snippet maxLines="0"/><Point><coordinates>112.4425,34.8257,0</coordinates></Point></Placemark><Placemark><name>瞻诸山5-6-4</name><Snippet maxLines="0"/><Point><coordinates>111.8753,34.74661,0</coordinates></Point></Placemark><Placemark><name>娄涿山5-6-5</name><Snippet maxLines="0"/><Point><coordinates>111.568,34.71462,0</coordinates></Point></Placemark><Placemark><name>白石山5-6-6</name><Snippet maxLines="0"/><Point><coordinates>111.3983,34.5595,0</coordinates></Point></Placemark><Placemark><name>榖山5-6-7</name><Snippet maxLines="0"/><Point><coordinates>110.9517,34.61176,0</coordinates></Point></Placemark><Placemark><name>长石山5-6-9</name><Snippet maxLines="0"/><Point><coordinates>109.9806,34.7974,0</coordinates></Point></Placemark><Placemark><name>傅山5-6-10</name><Snippet maxLines="0"/><Point><coordinates>109.1803,34.74798,0</coordinates></Point></Placemark><Placemark><name>橐山5-6-11</name><Snippet maxLines="0"/><Point><coordinates>108.9474,34.897,0</coordinates></Point></Placemark><Placemark><name>常烝山5-6-12</name><Snippet maxLines="0"/><Point><coordinates>108.6406,35.05542,0</coordinates></Point></Placemark><Placemark><name>夸父山5-6-13</name><Snippet maxLines="0"/><Point><coordinates>108.2021,35.18568,0</coordinates></Point></Placemark><Placemark><name>阳华山5-6-14</name><Snippet maxLines="0"/><Point><coordinates>107.3702,35.33664,0</coordinates></Point></Placemark><Placemark><name>休与山5-7-1</name><Snippet maxLines="0"/><Point><coordinates>110.4324,33.87422,0</coordinates></Point></Placemark><Placemark><name>鼓钟山5-7-2</name><Snippet maxLines="0"/><Point><coordinates>111.075,33.68784,0</coordinates></Point></Placemark><Placemark><name>姑媱山5-7-3</name><Snippet maxLines="0"/><Point><coordinates>11153860,33.50328,0</coordinates></Point></Placemark><Placemark><name>苦山5-7-4</name><Snippet maxLines="0"/><Point><coordinates>111.7886,33.36512,0</coordinates></Point></Placemark><Placemark><name>堵山5-7-5</name><Snippet maxLines="0"/><Point><coordinates>112.134,33.11975,0</coordinates></Point></Placemark><Placemark><name>放皋山5-7-6</name><Snippet maxLines="0"/><Point><coordinates>112.537,33.00354,0</coordinates></Point></Placemark><Placemark><name>大[非/古]山5-7-7</name><Snippet maxLines="0"/><Point><coordinates>112.9368,33.05544,0</coordinates></Point></Placemark><Placemark><name>半石山5-7-8</name><Snippet maxLines="0"/><Point><coordinates>113.4303,33.10704,0</coordinates></Point></Placemark><Placemark><name>少室山5-7-9</name><Snippet maxLines="0"/><Point><coordinates>113.7875,33.11416,0</coordinates></Point></Placemark><Placemark><name>泰室山5-7-10</name><Snippet maxLines="0"/><Point><coordinates>113.9955,33.144,0</coordinates></Point></Placemark><Placemark><name>讲山5-7-11</name><Snippet maxLines="0"/><Point><coordinates>114.0227,33.38766,0</coordinates></Point></Placemark><Placemark><name>婴梁山5-7-12</name><Snippet maxLines="0"/><Point><coordinates>114.0152,33.58476,0</coordinates></Point></Placemark><Placemark><name>浮戏山5-7-13</name><Snippet maxLines="0"/><Point><coordinates>114.3406,5952,0</coordinates></Point></Placemark><Placemark><name>少陉山5-7-14</name><Snippet maxLines="0"/><Point><coordinates>114.6423,33.63654,0</coordinates></Point></Placemark><Placemark><name>太山5-7-15</name><Snippet maxLines="0"/><Point><coordinates>114.7639,33.60839,0</coordinates></Point></Placemark><Placemark><name>末山5-7-16</name><Snippet maxLines="0"/><Point><coordinates>114.9994,33.958,0</coordinates></Point></Placemark><Placemark><name>役山5-7-17</name><Snippet maxLines="0"/><Point><coordinates>115.2017,33.64153,0</coordinates></Point></Placemark><Placemark><name>敏山5-7-18</name><Snippet maxLines="0"/><Point><coordinates>115.4892,33.8599,0</coordinates></Point></Placemark><Placemark><name>大騩山5-7-19</name><Snippet maxLines="0"/><Point><coordinates>115.7758,33.87268,0</coordinates></Point></Placemark><Placemark><name>景山5-8-1</name><Snippet maxLines="0"/><Point><coordinates>109.8025,32.94227,0</coordinates></Point></Placemark><Placemark><name>荆山5-8-2</name><Snippet maxLines="0"/><Point><coordinates>11040600,32.99288,0</coordinates></Point></Placemark><Placemark><name>骄山5-8-3</name><Snippet maxLines="0"/><Point><coordinates>111.1963,33.01213,0</coordinates></Point></Placemark><Placemark><name>女几山5-8-4</name><Snippet maxLines="0"/><Point><coordinates>111.8492,33.04507,0</coordinates></Point></Placemark><Placemark><name>宜诸山5-8-5</name><Snippet maxLines="0"/><Point><coordinates>112.5904,32.71117,0</coordinates></Point></Placemark><Placemark><name>纶山5-8-6</name><Snippet maxLines="0"/><Point><coordinates>113.6713,32.18792,0</coordinates></Point></Placemark><Placemark><name>陆䢿山5-8-7</name><Snippet maxLines="0"/><Point><coordinates>114.3154,31.96904,0</coordinates></Point></Placemark><Placemark><name>光山5-8-8</name><Snippet maxLines="0"/><Point><coordinates>114.9008,32.00468,0</coordinates></Point></Placemark><Placemark><name>岐山5-8-9</name><Snippet maxLines="0"/><Point><coordinates>115.4082,31.79695,0</coordinates></Point></Placemark><Placemark><name>铜山5-8-10</name><Snippet maxLines="0"/><Point><coordinates>115.9183,31.84666,0</coordinates></Point></Placemark><Placemark><name>美山5-8-11</name><Snippet maxLines="0"/><Point><coordinates>116.5156,31.79001,0</coordinates></Point></Placemark><Placemark><name>大尧山5-8-12</name><Snippet maxLines="0"/><Point><coordinates>116.8787,32.07173,0</coordinates></Point></Placemark><Placemark><name>灵山5-8-13</name><Snippet maxLines="0"/><Point><coordinates>118.2811,32.27758,0</coordinates></Point></Placemark><Placemark><name>龙山5-8-14</name><Snippet maxLines="0"/><Point><coordinates>118.5633,32.50864,0</coordinates></Point></Placemark><Placemark><name>衡山5-8-15</name><Snippet maxLines="0"/><Point><coordinates>118.8326,32.45948,0</coordinates></Point></Placemark><Placemark><name>石山5-8-16</name><Snippet maxLines="0"/><Point><coordinates>119.0447,32.29436,0</coordinates></Point></Placemark><Placemark><name>若山5-8-17</name><Snippet maxLines="0"/><Point><coordinates>118.9867,31.75655,0</coordinates></Point></Placemark><Placemark><name>彘山5-8-18</name><Snippet maxLines="0"/><Point><coordinates>119.4541,31.79566,0</coordinates></Point></Placemark><Placemark><name>玉山5-8-19</name><Snippet maxLines="0"/><Point><coordinates>119.5715,31.7461,0</coordinates></Point></Placemark><Placemark><name>讙山5-8-20</name><Snippet maxLines="0"/><Point><coordinates>119.4254,32.18792,0</coordinates></Point></Placemark><Placemark><name>仁举山5-8-21</name><Snippet maxLines="0"/><Point><coordinates>119.4487,32.78157,0</coordinates></Point></Placemark><Placemark><name>师每山5-8-22</name><Snippet maxLines="0"/><Point><coordinates>119.8453,32.93432,0</coordinates></Point></Placemark><Placemark><name>琴鼓山5-8-23</name><Snippet maxLines="0"/><Point><coordinates>119.9619,31.81746,0</coordinates></Point></Placemark><Placemark><name>女几山5-9-1</name><Snippet maxLines="0"/><Point><coordinates>102.3632,30.81746,0</coordinates></Point></Placemark><Placemark><name>岷山5-9-2</name><Snippet maxLines="0"/><Point><coordinates>103.8531,31.6812,0</coordinates></Point></Placemark><Placemark><name>崃山5-9-3</name><Snippet maxLines="0"/><Point><coordinates>104.7348,31.77213,0</coordinates></Point></Placemark><Placemark><name>崌山5-9-4</name><Snippet maxLines="0"/><Point><coordinates>105.593,31.63528,0</coordinates></Point></Placemark><Placemark><name>高梁山5-9-5</name><Snippet maxLines="0"/><Point><coordinates>107.1042,31.56366,0</coordinates></Point></Placemark><Placemark><name>蛇山5-9-6</name><Snippet maxLines="0"/><Point><coordinates>109.5193,31.40002,0</coordinates></Point></Placemark><Placemark><name>鬲山5-9-7</name><Snippet maxLines="0"/><Point><coordinates>112.2019,31.04649,0</coordinates></Point></Placemark><Placemark><name>隅阳山5-9-8</name><Snippet maxLines="0"/><Point><coordinates>113.9251,30.92243,0</coordinates></Point></Placemark><Placemark><name>岐山5-9-9</name><Snippet maxLines="0"/><Point><coordinates>115.192,30.81969,0</coordinates></Point></Placemark><Placemark><name>勾檷山5-9-10</name><Snippet maxLines="0"/><Point><coordinates>116.8333,30.73282,0</coordinates></Point></Placemark><Placemark><name>风雨山5-9-11</name><Snippet maxLines="0"/><Point><coordinates>117.4878,30.65432,0</coordinates></Point></Placemark><Placemark><name>玉山5-9-12</name><Snippet maxLines="0"/><Point><coordinates>118.1995,31.07918,0</coordinates></Point></Placemark><Placemark><name>熊山5-9-13</name><Snippet maxLines="0"/><Point><coordinates>118.8773,31.32886,0</coordinates></Point></Placemark><Placemark><name>騩山5-9-14</name><Snippet maxLines="0"/><Point><coordinates>119.4907,31.42847,0</coordinates></Point></Placemark><Placemark><name>葛山5-9-15</name><Snippet maxLines="0"/><Point><coordinates>120.2751,31.90507,0</coordinates></Point></Placemark><Placemark><name>贾超山5-9-16</name><Snippet maxLines="0"/><Point><coordinates>120.9788,32.21636,0</coordinates></Point></Placemark><Placemark><name>首阳山5-10-1</name><Snippet maxLines="0"/><Point><coordinates>108.3361,33.99279,0</coordinates></Point></Placemark><Placemark><name>虎尾山5-10-2</name><Snippet maxLines="0"/><Point><coordinates>108.1736,33.83524,0</coordinates></Point></Placemark><Placemark><name>繁缋山5-10-3</name><Snippet maxLines="0"/><Point><coordinates>107.9736,33.63974,0</coordinates></Point></Placemark><Placemark><name>勇石山5-10-4</name><Snippet maxLines="0"/><Point><coordinates>107.9902,33.52455,0</coordinates></Point></Placemark><Placemark><name>复州山5-10-5</name><Snippet maxLines="0"/><Point><coordinates>107.8462,33.47569,0</coordinates></Point></Placemark><Placemark><name>楮山5-10-6</name><Snippet maxLines="0"/><Point><coordinates>107.7368,33.32573,0</coordinates></Point></Placemark><Placemark><name>又原山5-10-7</name><Snippet maxLines="0"/><Point><coordinates>107.6549,33.20845,0</coordinates></Point></Placemark><Placemark><name>涿山5-10-8</name><Snippet maxLines="0"/><Point><coordinates>107.3334,33.15226,0</coordinates></Point></Placemark><Placemark><name>丙山5-10-9</name><Snippet maxLines="0"/><Point><coordinates>107.0266,33.07064,0</coordinates></Point></Placemark><Placemark><name>翼望山5-11-1</name><Snippet maxLines="0"/><Point><coordinates>109.8788,31.07452,0</coordinates></Point></Placemark><Placemark><name>朝歌山5-11-2</name><Snippet maxLines="0"/><Point><coordinates>110.7133,30.97895,0</coordinates></Point></Placemark><Placemark><name>帝囷山5-11-3</name><Snippet maxLines="0"/><Point><coordinates>111.4577,30.38592,0</coordinates></Point></Placemark><Placemark><name>视山5-11-4</name><Snippet maxLines="0"/><Point><coordinates>111.7804,30.17532,0</coordinates></Point></Placemark><Placemark><name>前山5-11-5</name><Snippet maxLines="0"/><Point><coordinates>112.9076,29.81969,0</coordinates></Point></Placemark><Placemark><name>丰山5-11-6</name><Snippet maxLines="0"/><Point><coordinates>114.6887,29.51594,0</coordinates></Point></Placemark><Placemark><name>兔床山5-11-7</name><Snippet maxLines="0"/><Point><coordinates>115.2552,29.71985,0</coordinates></Point></Placemark><Placemark><name>皮山5-11-8</name><Snippet maxLines="0"/><Point><coordinates>115.6186,29.82401,0</coordinates></Point></Placemark><Placemark><name>瑶碧山5-11-9</name><Snippet maxLines="0"/><Point><coordinates>115.9899,29.75684,0</coordinates></Point></Placemark><Placemark><name>支离山5-11-10</name><Snippet maxLines="0"/><Point><coordinates>116.2501,29.72815,0</coordinates></Point></Placemark><Placemark><name>祑簓山5-11-11</name><Snippet maxLines="0"/><Point><coordinates>116.4215,29.90334,0</coordinates></Point></Placemark><Placemark><name>堇理山5-11-12</name><Snippet maxLines="0"/><Point><coordinates>116.2756,30.42272,0</coordinates></Point></Placemark><Placemark><name>依轱山5-11-13</name><Snippet maxLines="0"/><Point><coordinates>116.3876,30.26692,0</coordinates></Point></Placemark><Placemark><name>即谷山5-11-14</name><Snippet maxLines="0"/><Point><coordinates>116.5557,30.23071,0</coordinates></Point></Placemark><Placemark><name>鸡山5-11-15</name><Snippet maxLines="0"/><Point><coordinates>116.6931,30.12388,0</coordinates></Point></Placemark><Placemark><name>高前山5-11-16</name><Snippet maxLines="0"/><Point><coordinates>117.0245,30.09684,0</coordinates></Point></Placemark><Placemark><name>游戏山5-11-17</name><Snippet maxLines="0"/><Point><coordinates>117.182,30.01762,0</coordinates></Point></Placemark><Placemark><name>从山5-11-18</name><Snippet maxLines="0"/><Point><coordinates>117.386,29.94529,0</coordinates></Point></Placemark><Placemark><name>婴䃋山5-11-19</name><Snippet maxLines="0"/><Point><coordinates>117.5123,29.895,0</coordinates></Point></Placemark><Placemark><name>毕山5-11-20</name><Snippet maxLines="0"/><Point><coordinates>117.7174,29.85048,0</coordinates></Point></Placemark><Placemark><name>乐马山5-11-21</name><Snippet maxLines="0"/><Point><coordinates>117.8131,29.84411,0</coordinates></Point></Placemark><Placemark><name>葴山5-11-22</name><Snippet maxLines="0"/><Point><coordinates>117.9744,29.83727,0</coordinates></Point></Placemark><Placemark><name>婴山5-11-23</name><Snippet maxLines="0"/><Point><coordinates>118.1826,29.7823,0</coordinates></Point></Placemark><Placemark><name>虎首山5-11-24</name><Snippet maxLines="0"/><Point><coordinates>118.4122,29.75893,0</coordinates></Point></Placemark><Placemark><name>婴侯山5-11-25</name><Snippet maxLines="0"/><Point><coordinates>118.5339,29.80525,0</coordinates></Point></Placemark><Placemark><name>大孰山5-11-26</name><Snippet maxLines="0"/><Point><coordinates>118.9185,29.83582,0</coordinates></Point></Placemark><Placemark><name>卑山5-11-27</name><Snippet maxLines="0"/><Point><coordinates>119.1193,29.85132,0</coordinates></Point></Placemark><Placemark><name>倚帝山5-11-28</name><Snippet maxLines="0"/><Point><coordinates>119.3579,29.84868,0</coordinates></Point></Placemark><Placemark><name>鲵山5-11-29</name><Snippet maxLines="0"/><Point><coordinates>119.5403,28.89828,0</coordinates></Point></Placemark><Placemark><name>雅山5-11-30</name><Snippet maxLines="0"/><Point><coordinates>119.6696,29.98401,0</coordinates></Point></Placemark><Placemark><name>宣山5-11-31</name><Snippet maxLines="0"/><Point><coordinates>119.9343,30.08411,0</coordinates></Point></Placemark><Placemark><name>衡山5-11-32</name><Snippet maxLines="0"/><Point><coordinates>120.0816,30.15946,0</coordinates></Point></Placemark><Placemark><name>丰山5-11-33</name><Snippet maxLines="0"/><Point><coordinates>120.1723,30.24593,0</coordinates></Point></Placemark><Placemark><name>妪山5-11-34</name><Snippet maxLines="0"/><Point><coordinates>120.3564,30.46634,0</coordinates></Point></Placemark><Placemark><name>鲜山5-11-35</name><Snippet maxLines="0"/><Point><coordinates>120.5649,30.62918,0</coordinates></Point></Placemark><Placemark><name>章山5-11-36</name><Snippet maxLines="0"/><Point><coordinates>120.7492,30.76196,0</coordinates></Point></Placemark><Placemark><name>大克山5-11-37</name><Snippet maxLines="0"/><Point><coordinates>120.9271,30.82937,0</coordinates></Point></Placemark><Placemark><name>区吴山5-11-38</name><Snippet maxLines="0"/><Point><coordinates>121.2163,30.93277,0</coordinates></Point></Placemark><Placemark><name>声匈山5-11-39</name><Snippet maxLines="0"/><Point><coordinates>121.5013,30.98911,0</coordinates></Point></Placemark><Placemark><name>大騩山5-11-40</name><Snippet maxLines="0"/><Point><coordinates>121.7806,31.0123,0</coordinates></Point></Placemark><Placemark><name>踵臼山5-11-41</name><Snippet maxLines="0"/><Point><coordinates>121.84,31.03983,0</coordinates></Point></Placemark><Placemark><name>历石山5-11-42</name><Snippet maxLines="0"/><Point><coordinates>121.8389,31.3419,0</coordinates></Point></Placemark><Placemark><name>求山5-11-43</name><Snippet maxLines="0"/><Point><coordinates>121.6463,30.91584,0</coordinates></Point></Placemark><Placemark><name>丑阳山5-11-44</name><Snippet maxLines="0"/><Point><coordinates>122.4591,30.72776,0</coordinates></Point></Placemark><Placemark><name>奥山5-11-45</name><Snippet maxLines="0"/><Point><coordinates>122.65,30.81921,0</coordinates></Point></Placemark><Placemark><name>服山5-11-46</name><Snippet maxLines="0"/><Point><coordinates>122.8146,30.71732,0</coordinates></Point></Placemark><Placemark><name>杳山5-11-47</name><Snippet maxLines="0"/><Point><coordinates>122.2937,30.43504,0</coordinates></Point></Placemark><Placemark><name>几山5-11-48</name><Snippet maxLines="0"/><Point><coordinates>122.1078,30.01992,0</coordinates></Point></Placemark><Placemark><name>篇遇山5-12-1</name><Snippet maxLines="0"/><Point><coordinates>106.2983,31.26816,0</coordinates></Point></Placemark><Placemark><name>云山5-12-2</name><Snippet maxLines="0"/><Point><coordinates>106.5646,31.07628,0</coordinates></Point></Placemark><Placemark><name>龟山5-12-3</name><Snippet maxLines="0"/><Point><coordinates>107.28,31.06059,0</coordinates></Point></Placemark><Placemark><name>丙山5-12-4</name><Snippet maxLines="0"/><Point><coordinates>107.8643,31.08808,0</coordinates></Point></Placemark><Placemark><name>风伯山5-12-5</name><Snippet maxLines="0"/><Point><coordinates>108.3481,30.83883,0</coordinates></Point></Placemark><Placemark><name>夫夫山5-12-6</name><Snippet maxLines="0"/><Point><coordinates>109.464,31.01876,0</coordinates></Point></Placemark><Placemark><name>洞庭山5-12-7</name><Snippet maxLines="0"/><Point><coordinates>109.7262,30.60128,0</coordinates></Point></Placemark><Placemark><name>暴山5-12-8</name><Snippet maxLines="0"/><Point><coordinates>110.6739,30.19967,0</coordinates></Point></Placemark><Placemark><name>即公山5-12-9</name><Snippet maxLines="0"/><Point><coordinates>111.38,29.58439,0</coordinates></Point></Placemark><Placemark><name>尧山5-12-10</name><Snippet maxLines="0"/><Point><coordinates>112.1701,29.41105,0</coordinates></Point></Placemark><Placemark><name>江浮山5-12-11</name><Snippet maxLines="0"/><Point><coordinates>112.7543,29.04763,0</coordinates></Point></Placemark><Placemark><name>真陵山5-12-12</name><Snippet maxLines="0"/><Point><coordinates>113.6819,29.02197,0</coordinates></Point></Placemark><Placemark><name>阳帝山5-12-13</name><Snippet maxLines="0"/><Point><coordinates>114.244,29.00478,0</coordinates></Point></Placemark><Placemark><name>柴桑山5-12-14</name><Snippet maxLines="0"/><Point><coordinates>113.9391,28.7118,0</coordinates></Point></Placemark><Placemark><name>荣余山5-12-15</name><Snippet maxLines="0"/><Point><coordinates>115.0739,28.68053,0</coordinates></Point></Placemark><Placemark><name>结胸国6-1-1</name><Snippet maxLines="0"/><Point><coordinates>103.719,27.33638,0</coordinates></Point></Placemark><Placemark><name>南山6-1-2</name><Snippet maxLines="0"/><Point><coordinates>103.3001,26.41518,0</coordinates></Point></Placemark><Placemark><name>比翼鸟6-1-3</name><Snippet maxLines="0"/><Point><coordinates>105.7705,26.66358,0</coordinates></Point></Placemark><Placemark><name>羽民国6-1-4</name><Snippet maxLines="0"/><Point><coordinates>107.7792,26.98994,0</coordinates></Point></Placemark><Placemark><name>二八神6-1-5</name><Snippet maxLines="0"/><Point><coordinates>111.6001,26.45404,0</coordinates></Point></Placemark><Placemark><name>毕方鸟6-1-6</name><Snippet maxLines="0"/><Point><coordinates>113.0308,25.79536,0</coordinates></Point></Placemark><Placemark><name>讙头国6-1-7</name><Snippet maxLines="0"/><Point><coordinates>113.4317,24.94457,0</coordinates></Point></Placemark><Placemark><name>厌火国6-1-8</name><Snippet maxLines="0"/><Point><coordinates>113.5904,24.80076,0</coordinates></Point></Placemark><Placemark><name>三株树6-1-9</name><Snippet maxLines="0"/><Point><coordinates>113.1365,27.8288,0</coordinates></Point></Placemark><Placemark><name>三苗国6-1-10</name><Snippet maxLines="0"/><Point><coordinates>112.9341,28.22546,0</coordinates></Point></Placemark><Placemark><name>臷国6-1-11</name><Snippet maxLines="0"/><Point><coordinates>113.6307,28.14183,0</coordinates></Point></Placemark><Placemark><name>贯胸国6-1-12</name><Snippet maxLines="0"/><Point><coordinates>115.8913,28.67751,0</coordinates></Point></Placemark><Placemark><name>交胫国6-1-13</name><Snippet maxLines="0"/><Point><coordinates>117.063,28.70955,0</coordinates></Point></Placemark><Placemark><name>不死民6-1-14</name><Snippet maxLines="0"/><Point><coordinates>117.9571,28.43291,0</coordinates></Point></Placemark><Placemark><name>岐舌国6-1-15</name><Snippet maxLines="0"/><Point><coordinates>118.8726,28.95905,0</coordinates></Point></Placemark><Placemark><name>昆仑墟6-1-16</name><Snippet maxLines="0"/><Point><coordinates>119.6445,29.08372,0</coordinates></Point></Placemark><Placemark><name>羿与凿齿战6-1-17</name><Snippet maxLines="0"/><Point><coordinates>120.1269,29.5504,0</coordinates></Point></Placemark><Placemark><name>三首国6-1-18</name><Snippet maxLines="0"/><Point><coordinates>120.5872,29.99621,0</coordinates></Point></Placemark><Placemark><name>周饶国6-1-19</name><Snippet maxLines="0"/><Point><coordinates>121.1402,30.04851,0</coordinates></Point></Placemark><Placemark><name>长臂国6-1-20</name><Snippet maxLines="0"/><Point><coordinates>121.5487,29.87307,0</coordinates></Point></Placemark><Placemark><name>狄山离朱、视肉6-1-21</name><Snippet maxLines="0"/><Point><coordinates>121.4,30.0819,0</coordinates></Point></Placemark><Placemark><name>南祝融6-1-22</name><Snippet maxLines="0"/><Point><coordinates>119.9903,30.39278,0</coordinates></Point></Placemark><Placemark><name>灭蒙鸟7-1-1</name><Snippet maxLines="0"/><Point><coordinates>102.2675,27.8832,0</coordinates></Point></Placemark><Placemark><name>夏后启7-1-2</name><Snippet maxLines="0"/><Point><coordinates>103.2618,29.23063,0</coordinates></Point></Placemark><Placemark><name>三身国7-1-3</name><Snippet maxLines="0"/><Point><coordinates>102.9986,29.98567,0</coordinates></Point></Placemark><Placemark><name>一臂国7-1-4</name><Snippet maxLines="0"/><Point><coordinates>102.2053,31.90603,0</coordinates></Point></Placemark><Placemark><name>奇肱国7-1-5</name><Snippet maxLines="0"/><Point><coordinates>99.99276,31.62303,0</coordinates></Point></Placemark><Placemark><name>形天与帝争神7-1-6</name><Snippet maxLines="0"/><Point><coordinates>100.3305,32.30297,0</coordinates></Point></Placemark><Placemark><name>丈夫国7-1-9</name><Snippet maxLines="0"/><Point><coordinates>100.1379,37.3282,0</coordinates></Point></Placemark><Placemark><name>女丑之尸7-1-10</name><Snippet maxLines="0"/><Point><coordinates>100.1622,39.15205,0</coordinates></Point></Placemark><Placemark><name>巫咸国7-1-11</name><Snippet maxLines="0"/><Point><coordinates>98.51037,39.74462,0</coordinates></Point></Placemark><Placemark><name>并封国7-1-12</name><Snippet maxLines="0"/><Point><coordinates>98.90102,39.97924,0</coordinates></Point></Placemark><Placemark><name>女子国7-1-13</name><Snippet maxLines="0"/><Point><coordinates>97.04527,40.29179,0</coordinates></Point></Placemark><Placemark><name>轩辕国7-1-14</name><Snippet maxLines="0"/><Point><coordinates>93.50291,42.83603,0</coordinates></Point></Placemark><Placemark><name>穷山7-1-15</name><Snippet maxLines="0"/><Point><coordinates>93.01177,43.59971,0</coordinates></Point></Placemark><Placemark><name>诸夭之野7-1-16</name><Snippet maxLines="0"/><Point><coordinates>86.86638,47.70377,0</coordinates></Point></Placemark><Placemark><name>龙鱼陵居7-1-17</name><Snippet maxLines="0"/><Point><coordinates>83.76935,53.35502,0</coordinates></Point></Placemark><Placemark><name>白民国7-1-18</name><Snippet maxLines="0"/><Point><coordinates>82.89615,54.98324,0</coordinates></Point></Placemark><Placemark><name>肃慎国7-1-19</name><Snippet maxLines="0"/><Point><coordinates>86.0134,56.08482,0</coordinates></Point></Placemark><Placemark><name>长股国7-1-20</name><Snippet maxLines="0"/><Point><coordinates>73.39624,61.25406,0</coordinates></Point></Placemark><Placemark><name>西方蓐收7-1-21</name><Snippet maxLines="0"/><Point><coordinates>30.33816,59.95843,0</coordinates></Point></Placemark><Placemark><name>无晵国8-1-1</name><Snippet maxLines="0"/><Point><coordinates>87.61246,43.79137,0</coordinates></Point></Placemark><Placemark><name>钟山烛阴8-1-2</name><Snippet maxLines="0"/><Point><coordinates>89.58648,44.01425,0</coordinates></Point></Placemark><Placemark><name>一目国8-1-3</name><Snippet maxLines="0"/><Point><coordinates>94.68793,43.25092,0</coordinates></Point></Placemark><Placemark><name>柔利国8-1-4</name><Snippet maxLines="0"/><Point><coordinates>97.28165,42.95215,0</coordinates></Point></Placemark><Placemark><name>共工之臣相柳氏8-1-5</name><Snippet maxLines="0"/><Point><coordinates>101.0603,41.95286,0</coordinates></Point></Placemark><Placemark><name>深目国8-1-6</name><Snippet maxLines="0"/><Point><coordinates>105.7093,38.83884,0</coordinates></Point></Placemark><Placemark><name>无肠国8-1-7</name><Snippet maxLines="0"/><Point><coordinates>106.8204,39.68389,0</coordinates></Point></Placemark><Placemark><name>聶耳国8-1-8</name><Snippet maxLines="0"/><Point><coordinates>107.4199,40.75559,0</coordinates></Point></Placemark><Placemark><name>夸父与日逐走8-1-9</name><Snippet maxLines="0"/><Point><coordinates>112.5771,40.8937,0</coordinates></Point></Placemark><Placemark><name>博父国8-1-10</name><Snippet maxLines="0"/><Point><coordinates>111.1917,40.27707,0</coordinates></Point></Placemark><Placemark><name>禹所积石山8-1-11</name><Snippet maxLines="0"/><Point><coordinates>109.746,39.57561,0</coordinates></Point></Placemark><Placemark><name>拘缨国8-1-12</name><Snippet maxLines="0"/><Point><coordinates>111.2356,39.86548,0</coordinates></Point></Placemark><Placemark><name>寻木8-1-13</name><Snippet maxLines="0"/><Point><coordinates>111.4988,39.44263,0</coordinates></Point></Placemark><Placemark><name>跂踵国8-1-14</name><Snippet maxLines="0"/><Point><coordinates>113.3022,40.09356,0</coordinates></Point></Placemark><Placemark><name>欧丝之野8-1-15</name><Snippet maxLines="0"/><Point><coordinates>114.6306,4025761,0</coordinates></Point></Placemark><Placemark><name>三桑无枝8-1-16</name><Snippet maxLines="0"/><Point><coordinates>116.4045,39.90733,0</coordinates></Point></Placemark><Placemark><name>平丘8-1-17</name><Snippet maxLines="0"/><Point><coordinates>118.1744,40.7693,0</coordinates></Point></Placemark><Placemark><name>范林8-1-18</name><Snippet maxLines="0"/><Point><coordinates>118.9699,42.27223,0</coordinates></Point></Placemark><Placemark><name>务隅山8-1-19</name><Snippet maxLines="0"/><Point><coordinates>121.6021,41.59782,0</coordinates></Point></Placemark><Placemark><name>[长差]丘9-1-1</name><Snippet maxLines="0"/><Point><coordinates>120.5851,31.37549,0</coordinates></Point></Placemark><Placemark><name>大人国9-1-2</name><Snippet maxLines="0"/><Point><coordinates>119.9123,32.45475,0</coordinates></Point></Placemark><Placemark><name>奢比尸9-1-3</name><Snippet maxLines="0"/><Point><coordinates>119.2412,34.28897,0</coordinates></Point></Placemark><Placemark><name>君子国9-1-4</name><Snippet maxLines="0"/><Point><coordinates>117.6775,36.22736,0</coordinates></Point></Placemark><Placemark><name>虹虹9-1-5</name><Snippet maxLines="0"/><Point><coordinates>117.3392,38.37175,0</coordinates></Point></Placemark><Placemark><name>朝阳之谷神天吴9-1-6</name><Snippet maxLines="0"/><Point><coordinates>117.1921,39.12951,0</coordinates></Point></Placemark><Placemark><name>青丘九尾狐9-1-7</name><Snippet maxLines="0"/><Point><coordinates>118.1775,39.63388,0</coordinates></Point></Placemark><Placemark><name>帝命竖亥步9-1-8</name><Snippet maxLines="0"/><Point><coordinates>119.9417,40.81852,0</coordinates></Point></Placemark><Placemark><name>黑齿国9-1-9</name><Snippet maxLines="0"/><Point><coordinates>123.4318,41.80543,0</coordinates></Point></Placemark><Placemark><name>汤谷十日9-1-10</name><Snippet maxLines="0"/><Point><coordinates>123.7233,42.99917,0</coordinates></Point></Placemark><Placemark><name>雨师妾9-1-11</name><Snippet maxLines="0"/><Point><coordinates>125.3045,43.34216,0</coordinates></Point></Placemark><Placemark><name>玄股国9-1-12</name><Snippet maxLines="0"/><Point><coordinates>125.336,43.9167,0</coordinates></Point></Placemark><Placemark><name>毛民国9-1-13</name><Snippet maxLines="0"/><Point><coordinates>126.6425,45.75759,0</coordinates></Point></Placemark><Placemark><name>劳民国9-1-14</name><Snippet maxLines="0"/><Point><coordinates>127.5269,50.29088,0</coordinates></Point></Placemark><Placemark><name>三天子鄣山10-1-2</name><Snippet maxLines="0"/><Point><coordinates>119.2631,28.48184,0</coordinates></Point></Placemark><Placemark><name>桂林八树10-1-3</name><Snippet maxLines="0"/><Point><coordinates>117.1693,27.13604,0</coordinates></Point></Placemark><Placemark><name>伯虑国10-1-4</name><Snippet maxLines="0"/><Point><coordinates>116.6401,27.56886,0</coordinates></Point></Placemark><Placemark><name>枭阳国10-1-5</name><Snippet maxLines="0"/><Point><coordinates>114.9151,27.039,0</coordinates></Point></Placemark><Placemark><name>兕10-1-6</name><Snippet maxLines="0"/><Point><coordinates>113.0406,25.80055,0</coordinates></Point></Placemark><Placemark><name>苍梧山10-1-7</name><Snippet maxLines="0"/><Point><coordinates>111.988,25.34963,0</coordinates></Point></Placemark><Placemark><name>泛林10-1-8</name><Snippet maxLines="0"/><Point><coordinates>111.2766,24.81748,0</coordinates></Point></Placemark><Placemark><name>狌狌知人名10-1-9</name><Snippet maxLines="0"/><Point><coordinates>110.4937,24.7766,0</coordinates></Point></Placemark><Placemark><name>犀牛10-1-10</name><Snippet maxLines="0"/><Point><coordinates>109.4095,24.33518,0</coordinates></Point></Placemark><Placemark><name>夏后启之臣孟涂10-1-11</name><Snippet maxLines="0"/><Point><coordinates>108.0868,24.68741,0</coordinates></Point></Placemark><Placemark><name>窫窳龙首10-1-12</name><Snippet maxLines="0"/><Point><coordinates>109.227,23.7342,0</coordinates></Point></Placemark><Placemark><name>建木10-1-13</name><Snippet maxLines="0"/><Point><coordinates>107.9942,23.73643,0</coordinates></Point></Placemark><Placemark><name>氐人国10-1-14</name><Snippet maxLines="0"/><Point><coordinates>107.6583,23.97551,0</coordinates></Point></Placemark><Placemark><name>巴蛇食象10-1-15</name><Snippet maxLines="0"/><Point><coordinates>106.617,23.89774,0</coordinates></Point></Placemark><Placemark><name>旄马10-1-16</name><Snippet maxLines="0"/><Point><coordinates>105.0965,24.49178,0</coordinates></Point></Placemark><Placemark><name>危与贰负杀窫窳11-1-1</name><Snippet maxLines="0"/><Point><coordinates>103.3001,26.41518,0</coordinates></Point></Placemark><Placemark><name>大泽11-1-2</name><Snippet maxLines="0"/><Point><coordinates>104.6423,28.75833,0</coordinates></Point></Placemark><Placemark><name>雁门山11-1-3</name><Snippet maxLines="0"/><Point><coordinates>104.7782,29.33939,0</coordinates></Point></Placemark><Placemark><name>高柳11-1-4</name><Snippet maxLines="0"/><Point><coordinates>105.0661,29.58642,0</coordinates></Point></Placemark><Placemark><name>后稷之葬11-1-5</name><Snippet maxLines="0"/><Point><coordinates>104.6516,30.12192,0</coordinates></Point></Placemark><Placemark><name>流黄酆氏国11-1-6</name><Snippet maxLines="0"/><Point><coordinates>103.8341,30.04234,0</coordinates></Point></Placemark><Placemark><name>流沙11-1-7</name><Snippet maxLines="0"/><Point><coordinates>103.5154,30.58678,0</coordinates></Point></Placemark><Placemark><name>东胡11-1-8</name><Snippet maxLines="0"/><Point><coordinates>103.5637,30.90664,0</coordinates></Point></Placemark><Placemark><name>夷人11-1-9</name><Snippet maxLines="0"/><Point><coordinates>103.5849,31.47751,0</coordinates></Point></Placemark><Placemark><name>貊国11-1-10</name><Snippet maxLines="0"/><Point><coordinates>103.8539,31.68597,0</coordinates></Point></Placemark><Placemark><name>孟鸟11-1-11</name><Snippet maxLines="0"/><Point><coordinates>103.6008,32.64751,0</coordinates></Point></Placemark><Placemark><name>海内昆仑墟11-1-12</name><Snippet maxLines="0"/><Point><coordinates>93.5533,35.71969,0</coordinates></Point></Placemark><Placemark><name>开明兽11-1-17</name><Snippet maxLines="0"/><Point><coordinates>104.0657,30.6625,0</coordinates></Point></Placemark><Placemark><name>开明西凤凰11-1-18</name><Snippet maxLines="0"/><Point><coordinates>103.2959,30.58141,0</coordinates></Point></Placemark><Placemark><name>服常树上三头人11-1-21</name><Snippet maxLines="0"/><Point><coordinates>109.464,31.01876,0</coordinates></Point></Placemark><Placemark><name>开明南树鸟11-1-22</name><Snippet maxLines="0"/><Point><coordinates>104.6423,28.75833,0</coordinates></Point></Placemark><Placemark><name>蛇巫山上操柸人12-1-1</name><Snippet maxLines="0"/><Point><coordinates>35.47232,28.72305,0</coordinates></Point></Placemark><Placemark><name>西王母12-1-2</name><Snippet maxLines="0"/><Point><coordinates>37.01041,39.74841,0</coordinates></Point></Placemark><Placemark><name>大行伯12-1-3</name><Snippet maxLines="0"/><Point><coordinates>51.38327,35.69136,0</coordinates></Point></Placemark><Placemark><name>犬封国12-1-4</name><Snippet maxLines="0"/><Point><coordinates>63.13295,34.98691,0</coordinates></Point></Placemark><Placemark><name>鬼国12-1-5</name><Snippet maxLines="0"/><Point><coordinates>58.39784,37.93698,0</coordinates></Point></Placemark><Placemark><name>蜪犬12-1-6</name><Snippet maxLines="0"/><Point><coordinates>68.7855,38.56267,0</coordinates></Point></Placemark><Placemark><name>穷奇12-1-7</name><Snippet maxLines="0"/><Point><coordinates>75.29527,42.85091,0</coordinates></Point></Placemark><Placemark><name>帝尧台12-1-8</name><Snippet maxLines="0"/><Point><coordinates>81.32178,43.9188,0</coordinates></Point></Placemark><Placemark><name>大蜂12-1-9</name><Snippet maxLines="0"/><Point><coordinates>88.33243,43.80208,0</coordinates></Point></Placemark><Placemark><name>蟜12-1-10</name><Snippet maxLines="0"/><Point><coordinates>81.87128,41.79658,0</coordinates></Point></Placemark><Placemark><name>闒非12-1-11</name><Snippet maxLines="0"/><Point><coordinates>89.18513,42.95152,0</coordinates></Point></Placemark><Placemark><name>据比尸12-1-12</name><Snippet maxLines="0"/><Point><coordinates>106.2875,36.00786,0</coordinates></Point></Placemark><Placemark><name>环狗12-1-13</name><Snippet maxLines="0"/><Point><coordinates>107.3089,36.57002,0</coordinates></Point></Placemark><Placemark><name>祙12-1-14</name><Snippet maxLines="0"/><Point><coordinates>109.3288,36.86389,0</coordinates></Point></Placemark><Placemark><name>戎12-1-15</name><Snippet maxLines="0"/><Point><coordinates>110.2632,37.50189,0</coordinates></Point></Placemark><Placemark><name>林氏国驺吾12-1-16</name><Snippet maxLines="0"/><Point><coordinates>109.731,38.28388,0</coordinates></Point></Placemark><Placemark><name>昆仑墟南汜林12-1-17</name><Snippet maxLines="0"/><Point><coordinates>110.4932,38.84271,0</coordinates></Point></Placemark><Placemark><name>从极之渊冰夷12-1-18</name><Snippet maxLines="0"/><Point><coordinates>112.5611,37.87316,0</coordinates></Point></Placemark><Placemark><name>阳汙山12-1-19</name><Snippet maxLines="0"/><Point><coordinates>113.8867,39.27488,0</coordinates></Point></Placemark><Placemark><name>王子夜尸12-1-20</name><Snippet maxLines="0"/><Point><coordinates>116.3979,39.9,0</coordinates></Point></Placemark><Placemark><name>钜燕13-1-1</name><Snippet maxLines="0"/><Point><coordinates>122.9945,41.11231,0</coordinates></Point></Placemark><Placemark><name>盖国13-1-2</name><Snippet maxLines="0"/><Point><coordinates>122.3654,40.40002,0</coordinates></Point></Placemark><Placemark><name>西胡白玉山13-1-5</name><Snippet maxLines="0"/><Point><coordinates>129.2152,41.71342,0</coordinates></Point></Placemark><Placemark><name>列姑射13-1-7</name><Snippet maxLines="0"/><Point><coordinates>133.9057,34.67331,0</coordinates></Point></Placemark><Placemark><name>射姑国13-1-8</name><Snippet maxLines="0"/><Point><coordinates>131.6652,32.58327,0</coordinates></Point></Placemark><Placemark><name>大蟹13-1-9</name><Snippet maxLines="0"/><Point><coordinates>129.4916,28.37932,0</coordinates></Point></Placemark><Placemark><name>陵鱼13-1-10</name><Snippet maxLines="0"/><Point><coordinates>127.7994,26.28422,0</coordinates></Point></Placemark><Placemark><name>大鯾13-1-11</name><Snippet maxLines="0"/><Point><coordinates>124.1583,24.37531,0</coordinates></Point></Placemark><Placemark><name>明组邑13-1-12</name><Snippet maxLines="0"/><Point><coordinates>120.6731,24.14745,0</coordinates></Point></Placemark><Placemark><name>蓬莱山13-1-13</name><Snippet maxLines="0"/><Point><coordinates>120.8996,16.60139,0</coordinates></Point></Placemark><Placemark><name>大人之市13-1-14</name><Snippet maxLines="0"/><Point><coordinates>125.4527,7.19003,0</coordinates></Point></Placemark><Placemark><name>琅琊台13-1-15</name><Snippet maxLines="0"/><Point><coordinates>119.9141,35.6418,0</coordinates></Point></Placemark><Placemark><name>都州13-1-16</name><Snippet maxLines="0"/><Point><coordinates>119.1962,34.60562,0</coordinates></Point></Placemark><Placemark><name>雷泽中雷神13-1-17</name><Snippet maxLines="0"/><Point><coordinates>118.2741,33.952,0</coordinates></Point></Placemark><Placemark><name>韩雁13-1-18</name><Snippet maxLines="0"/><Point><coordinates>119.0255,33.59666,0</coordinates></Point></Placemark><Placemark><name>始鸠13-1-19</name><Snippet maxLines="0"/><Point><coordinates>120.9788,32.21641,0</coordinates></Point></Placemark><Placemark><name>会稽山13-1-20</name><Snippet maxLines="0"/><Point><coordinates>120.6409,29.68764,0</coordinates></Point></Placemark><Placemark><name>少昊之国14-1-1</name><Snippet maxLines="0"/><Point><coordinates>122.0564,37.19775,0</coordinates></Point></Placemark><Placemark><name>甘山14-1-2</name><Snippet maxLines="0"/><Point><coordinates>121.757,37.27368,0</coordinates></Point></Placemark><Placemark><name>皮母地丘14-1-3</name><Snippet maxLines="0"/><Point><coordinates>120.4679,36.38849,0</coordinates></Point></Placemark><Placemark><name>大言山14-1-4</name><Snippet maxLines="0"/><Point><coordinates>120.6314,36.18342,0</coordinates></Point></Placemark><Placemark><name>人国大人市14-1-5</name><Snippet maxLines="0"/><Point><coordinates>118.0849,36.35981,0</coordinates></Point></Placemark><Placemark><name>小人国靖人14-1-6</name><Snippet maxLines="0"/><Point><coordinates>118.5428,36.51408,0</coordinates></Point></Placemark><Placemark><name>犁䰰尸14-1-7</name><Snippet maxLines="0"/><Point><coordinates>118.4746,36.68434,0</coordinates></Point></Placemark><Placemark><name>蒍国14-1-8</name><Snippet maxLines="0"/><Point><coordinates>117.0206,36.66782,0</coordinates></Point></Placemark><Placemark><name>合虚山14-1-9</name><Snippet maxLines="0"/><Point><coordinates>117.4984,38.1405,0</coordinates></Point></Placemark><Placemark><name>中容国14-1-10</name><Snippet maxLines="0"/><Point><coordinates>115.8718,39.05016,0</coordinates></Point></Placemark><Placemark><name>君子国14-1-11</name><Snippet maxLines="0"/><Point><coordinates>116.3094,39.43787,0</coordinates></Point></Placemark><Placemark><name>司幽国14-1-12</name><Snippet maxLines="0"/><Point><coordinates>116.0559,39.6172,0</coordinates></Point></Placemark><Placemark><name>白民国14-1-14</name><Snippet maxLines="0"/><Point><coordinates>117.9651,40.18772,0</coordinates></Point></Placemark><Placemark><name>青丘国14-1-15</name><Snippet maxLines="0"/><Point><coordinates>118.1775,39.63388,0</coordinates></Point></Placemark><Placemark><name>柔仆民14-1-16</name><Snippet maxLines="0"/><Point><coordinates>121.1289,41.11637,0</coordinates></Point></Placemark><Placemark><name>黑齿国14-1-17</name><Snippet maxLines="0"/><Point><coordinates>123.4318,41.80543,0</coordinates></Point></Placemark><Placemark><name>天吴14-1-18</name><Snippet maxLines="0"/><Point><coordinates>125.3243,43.90164,0</coordinates></Point></Placemark><Placemark><name>玄股国14-1-21</name><Snippet maxLines="0"/><Point><coordinates>130.9321,45.81609,0</coordinates></Point></Placemark><Placemark><name>有易潜出14-1-22</name><Snippet maxLines="0"/><Point><coordinates>132.0415,47.25081,0</coordinates></Point></Placemark><Placemark><name>女丑、大蟹14-1-23</name><Snippet maxLines="0"/><Point><coordinates>134.3043,46.44151,0</coordinates></Point></Placemark><Placemark><name>孽摇頵羝山与汤谷扶木14-1-24</name><Snippet maxLines="0"/><Point><coordinates>137.0226,50.5425,0</coordinates></Point></Placemark><Placemark><name>奢比尸14-1-25</name><Snippet maxLines="0"/><Point><coordinates>136.4952,52.42251,0</coordinates></Point></Placemark><Placemark><name>五彩鸟相乡弃沙14-1-26</name><Snippet maxLines="0"/><Point><coordinates>140.2022,53.54295,0</coordinates></Point></Placemark><Placemark><name>猗天苏门山14-1-27</name><Snippet maxLines="0"/><Point><coordinates>135.5666,62.65301,0</coordinates></Point></Placemark><Placemark><name>壑明俊疾山14-1-28</name><Snippet maxLines="0"/><Point><coordinates>171.1574,61.95458,0</coordinates></Point></Placemark><Placemark><name>女和月母国14-1-30</name><Snippet maxLines="0"/><Point><coordinates>173.2482,66.50574,0</coordinates></Point></Placemark><Placemark><name>应龙杀蚩尤与夸父14-1-31</name><Snippet maxLines="0"/><Point><coordinates>127.3575,70.68402,0</coordinates></Point></Placemark><Placemark><name>东海夔牛14-1-32</name><Snippet maxLines="0"/><Point><coordinates>127.7994,26.28442,0</coordinates></Point></Placemark><Placemark><name>苍梧之野15-1-2</name><Snippet maxLines="0"/><Point><coordinates>112.1027,23.75711,0</coordinates></Point></Placemark><Placemark><name>黑水玄蛇15-1-3</name><Snippet maxLines="0"/><Point><coordinates>113.2922,25.85476,0</coordinates></Point></Placemark><Placemark><name>巫山黄鸟15-1-3</name><Snippet maxLines="0"/><Point><coordinates>114.1666,26.02009,0</coordinates></Point></Placemark><Placemark><name>三身国15-1-4</name><Snippet maxLines="0"/><Point><coordinates>114.2896,26.74716,0</coordinates></Point></Placemark><Placemark><name>不姜山15-1-6</name><Snippet maxLines="0"/><Point><coordinates>114.5757,29.36491,0</coordinates></Point></Placemark><Placemark><name>盈民国15-1-7</name><Snippet maxLines="0"/><Point><coordinates>117.2177,29.34606,0</coordinates></Point></Placemark><Placemark><name>不死国15-1-8</name><Snippet maxLines="0"/><Point><coordinates>177.9571,28.43291,0</coordinates></Point></Placemark><Placemark><name>去痓山15-1-9</name><Snippet maxLines="0"/><Point><coordinates>114.4926,24.36926,0</coordinates></Point></Placemark><Placemark><name>不廷胡余15-1-10</name><Snippet maxLines="0"/><Point><coordinates>113.9139,22.03619,0</coordinates></Point></Placemark><Placemark><name>因因乎15-1-11</name><Snippet maxLines="0"/><Point><coordinates>114.6963,23.73428,0</coordinates></Point></Placemark><Placemark><name>季釐国15-1-12</name><Snippet maxLines="0"/><Point><coordinates>116.37,2355281,0</coordinates></Point></Placemark><Placemark><name>臷民国15-1-13</name><Snippet maxLines="0"/><Point><coordinates>115.3661,22.77768,0</coordinates></Point></Placemark><Placemark><name>融天山15-1-14</name><Snippet maxLines="0"/><Point><coordinates>114.8392,22.72104,0</coordinates></Point></Placemark><Placemark><name>羿杀凿齿15-1-15</name><Snippet maxLines="0"/><Point><coordinates>114.4207,23.11308,0</coordinates></Point></Placemark><Placemark><name>蜮民国15-1-16</name><Snippet maxLines="0"/><Point><coordinates>113.6734,22.8149,0</coordinates></Point></Placemark><Placemark><name>宋山枫木15-1-17</name><Snippet maxLines="0"/><Point><coordinates>113.839,22.90622,0</coordinates></Point></Placemark><Placemark><name>柤状尸15-1-18</name><Snippet maxLines="0"/><Point><coordinates>113.2483,23.1147,0</coordinates></Point></Placemark><Placemark><name>焦侥国15-1-19</name><Snippet maxLines="0"/><Point><coordinates>113.2948,22.80627,0</coordinates></Point></Placemark><Placemark><name>禹攻云雨15-1-20</name><Snippet maxLines="0"/><Point><coordinates>113.0832,22.5793,0</coordinates></Point></Placemark><Placemark><name>张弘国15-1-22</name><Snippet maxLines="0"/><Point><coordinates>109.709,21.02233,0</coordinates></Point></Placemark><Placemark><name>驩头国15-1-23</name><Snippet maxLines="0"/><Point><coordinates>109.1993,21.66218,0</coordinates></Point></Placemark><Placemark><name>岳山15-1-24</name><Snippet maxLines="0"/><Point><coordinates>109.4626,22.45777,0</coordinates></Point></Placemark><Placemark><name>天台高山15-1-25</name><Snippet maxLines="0"/><Point><coordinates>108.6266,21.96534,0</coordinates></Point></Placemark><Placemark><name>羲和生日15-1-26</name><Snippet maxLines="0"/><Point><coordinates>108.3557,21.76213,0</coordinates></Point></Placemark><Placemark><name>盖犹山15-1-27</name><Snippet maxLines="0"/><Point><coordinates>109.7687,19.24867,0</coordinates></Point></Placemark><Placemark><name>小人菌人15-1-28</name><Snippet maxLines="0"/><Point><coordinates>110.3297,20.02699,0</coordinates></Point></Placemark><Placemark><name>南类山15-1-29</name><Snippet maxLines="0"/><Point><coordinates>109.166,18.3708,0</coordinates></Point></Placemark><Placemark><name>女娲之肠16-1-1</name><Snippet maxLines="0"/><Point><coordinates>109.2131,34.36934,0</coordinates></Point></Placemark><Placemark><name>西周国16-1-2</name><Snippet maxLines="0"/><Point><coordinates>111.067,39.02832,0</coordinates></Point></Placemark><Placemark><name>长胫国16-1-3</name><Snippet maxLines="0"/><Point><coordinates>106.2022,37.9902,0</coordinates></Point></Placemark><Placemark><name>盖山国16-1-4</name><Snippet maxLines="0"/><Point><coordinates>105.4037,37.88614,0</coordinates></Point></Placemark><Placemark><name>柜格松16-1-5</name><Snippet maxLines="0"/><Point><coordinates>105.19,37.51196,0</coordinates></Point></Placemark><Placemark><name>白氏国16-1-6</name><Snippet maxLines="0"/><Point><coordinates>104.1726,36.54143,0</coordinates></Point></Placemark><Placemark><name>先民国16-1-7</name><Snippet maxLines="0"/><Point><coordinates>103.8388,36.05389,0</coordinates></Point></Placemark><Placemark><name>夏耕尸16-1-8</name><Snippet maxLines="0"/><Point><coordinates>103.62,36.10054,0</coordinates></Point></Placemark><Placemark><name>淑士国16-1-9</name><Snippet maxLines="0"/><Point><coordinates>100.6218,36.27507,0</coordinates></Point></Placemark><Placemark><name>不周负子山16-1-10</name><Snippet maxLines="0"/><Point><coordinates>94.18509,37.35545,0</coordinates></Point></Placemark><Placemark><name>北狄国16-1-11</name><Snippet maxLines="0"/><Point><coordinates>103.1391,36.97125,0</coordinates></Point></Placemark><Placemark><name>五彩鸟三名16-1-12</name><Snippet maxLines="0"/><Point><coordinates>102.8985,37.47173,0</coordinates></Point></Placemark><Placemark><name>吴回16-1-13</name><Snippet maxLines="0"/><Point><coordinates>102.6366,37.92805,0</coordinates></Point></Placemark><Placemark><name>狂鸟16-1-14</name><Snippet maxLines="0"/><Point><coordinates>100.4638,38.94338,0</coordinates></Point></Placemark><Placemark><name>灵山十巫16-1-15</name><Snippet maxLines="0"/><Point><coordinates>98.49549,39.75029,0</coordinates></Point></Placemark><Placemark><name>丰沮玉门山16-1-16</name><Snippet maxLines="0"/><Point><coordinates>97.04967,40.29078,0</coordinates></Point></Placemark><Placemark><name>有虫状如菟16-1-17</name><Snippet maxLines="0"/><Point><coordinates>95.77714,40.52701,0</coordinates></Point></Placemark><Placemark><name>沃民沃野16-1-18</name><Snippet maxLines="0"/><Point><coordinates>93.51203,42.81821,0</coordinates></Point></Placemark><Placemark><name>三青鸟16-1-19</name><Snippet maxLines="0"/><Point><coordinates>89.18872,42.95156,0</coordinates></Point></Placemark><Placemark><name>轩辕台16-1-20</name><Snippet maxLines="0"/><Point><coordinates>86.56638,42.05793,0</coordinates></Point></Placemark><Placemark><name>石夷16-1-21</name><Snippet maxLines="0"/><Point><coordinates>86.06388,44.30143,0</coordinates></Point></Placemark><Placemark><name>龙山16-1-22</name><Snippet maxLines="0"/><Point><coordinates>82.07391,44.90472,0</coordinates></Point></Placemark><Placemark><name>女丑尸16-1-23</name><Snippet maxLines="0"/><Point><coordinates>81.32086,43.92183,0</coordinates></Point></Placemark><Placemark><name>女子国16-1-24</name><Snippet maxLines="0"/><Point><coordinates>82.50297,43.78768,0</coordinates></Point></Placemark><Placemark><name>桃山16-1-25</name><Snippet maxLines="0"/><Point><coordinates>80.12533,42.045,0</coordinates></Point></Placemark><Placemark><name>丈夫国16-1-26</name><Snippet maxLines="0"/><Point><coordinates>80.24038,41.27102,0</coordinates></Point></Placemark><Placemark><name>弇州山鸣鸟16-1-27</name><Snippet maxLines="0"/><Point><coordinates>75.98958,39.46733,0</coordinates></Point></Placemark><Placemark><name>轩辕国16-1-28</name><Snippet maxLines="0"/><Point><coordinates>73.24992,39.72729,0</coordinates></Point></Placemark><Placemark><name>屏蓬16-1-31</name><Snippet maxLines="0"/><Point><coordinates>107.5043,31.21311,0</coordinates></Point></Placemark><Placemark><name>鏖鏊钜山16-1-32</name><Snippet maxLines="0"/><Point><coordinates>106.6317,30.45852,0</coordinates></Point></Placemark><Placemark><name>孟翼之攻颛顼之池16-1-33</name><Snippet maxLines="0"/><Point><coordinates>10627600,29.97212,0</coordinates></Point></Placemark><Placemark><name>常羲生月16-1-34</name><Snippet maxLines="0"/><Point><coordinates>105.9681,31.58132,0</coordinates></Point></Placemark><Placemark><name>天虞16-1-37</name><Snippet maxLines="0"/><Point><coordinates>104.395,31.12655,0</coordinates></Point></Placemark><Placemark><name>大荒山16-1-38</name><Snippet maxLines="0"/><Point><coordinates>103.3342,29.522,0</coordinates></Point></Placemark><Placemark><name>夏后开16-1-39</name><Snippet maxLines="0"/><Point><coordinates>103.2618,29.23063,0</coordinates></Point></Placemark><Placemark><name>互人国16-1-41</name><Snippet maxLines="0"/><Point><coordinates>102.2668,27.89203,0</coordinates></Point></Placemark><Placemark><name>鱼妇16-1-42</name><Snippet maxLines="0"/><Point><coordinates>102.541,27.37851,0</coordinates></Point></Placemark><Placemark><name>[鸟蜀]鸟16-1-43</name><Snippet maxLines="0"/><Point><coordinates>101.507,29.00106,0</coordinates></Point></Placemark><Placemark><name>三面一臂人16-1-44</name><Snippet maxLines="0"/><Point><coordinates>101.0799,29.39395,0</coordinates></Point></Placemark><Placemark><name>一臂民16-1-45</name><Snippet maxLines="0"/><Point><coordinates>101.0153,30.03215,0</coordinates></Point></Placemark><Placemark><name>西王母16-1-46</name><Snippet maxLines="0"/><Point><coordinates>92.44287,34.21468,0</coordinates></Point></Placemark><Placemark><name>常阳山16-1-47</name><Snippet maxLines="0"/><Point><coordinates>93.08128,33.69234,0</coordinates></Point></Placemark><Placemark><name>寿麻国16-1-49</name><Snippet maxLines="0"/><Point><coordinates>95.79897,34.12702,0</coordinates></Point></Placemark><Placemark><name>附禺山17-1-1</name><Snippet maxLines="0"/><Point><coordinates>124.8214,45.11422,0</coordinates></Point></Placemark><Placemark><name>胡不与国马蹬泡之国17-1-2</name><Snippet maxLines="0"/><Point><coordinates>125.0831,45.52205,0</coordinates></Point></Placemark><Placemark><name>肃慎国17-1-3</name><Snippet maxLines="0"/><Point><coordinates>122.0761,46.07444,0</coordinates></Point></Placemark><Placemark><name>大人国17-1-4</name><Snippet maxLines="0"/><Point><coordinates>125.341,46.41109,0</coordinates></Point></Placemark><Placemark><name>鲧攻程州山17-1-5</name><Snippet maxLines="0"/><Point><coordinates>123.957,47.34151,0</coordinates></Point></Placemark><Placemark><name>先民山槃木17-1-6</name><Snippet maxLines="0"/><Point><coordinates>128.8408,47.72672,0</coordinates></Point></Placemark><Placemark><name>叔歜国17-1-7</name><Snippet maxLines="0"/><Point><coordinates>127.3251,49.42302,0</coordinates></Point></Placemark><Placemark><name>北齐国17-1-8</name><Snippet maxLines="0"/><Point><coordinates>126.1983,48.51436,0</coordinates></Point></Placemark><Placemark><name>始州国17-1-10</name><Snippet maxLines="0"/><Point><coordinates>126.9594,47.45922,0</coordinates></Point></Placemark><Placemark><name>毛民国17-1-12</name><Snippet maxLines="0"/><Point><coordinates>126.6425,45.75759,0</coordinates></Point></Placemark><Placemark><name>儋耳国17-1-13</name><Snippet maxLines="0"/><Point><coordinates>129.2826,47.13678,0</coordinates></Point></Placemark><Placemark><name>北极天柜山17-1-14</name><Snippet maxLines="0"/><Point><coordinates>177.0222,68.1378,0</coordinates></Point></Placemark><Placemark><name>夸父追日17-1-15</name><Snippet maxLines="0"/><Point><coordinates>112.5771,40.8937,0</coordinates></Point></Placemark><Placemark><name>无肠国17-1-16</name><Snippet maxLines="0"/><Point><coordinates>106.8204,39.68389,0</coordinates></Point></Placemark><Placemark><name>共工臣相繇17-1-17</name><Snippet maxLines="0"/><Point><coordinates>101.0603,41.95286,0</coordinates></Point></Placemark><Placemark><name>岳山寻竹17-1-18</name><Snippet maxLines="0"/><Point><coordinates>97.28165,42.95215,0</coordinates></Point></Placemark><Placemark><name>不句山17-1-19</name><Snippet maxLines="0"/><Point><coordinates>89.58648,44.01425,0</coordinates></Point></Placemark><Placemark><name>黄帝女妭17-1-20</name><Snippet maxLines="0"/><Point><coordinates>86.56638,42.05973,0</coordinates></Point></Placemark><Placemark><name>深目民国17-1-21</name><Snippet maxLines="0"/><Point><coordinates>86.06388,44.30143,0</coordinates></Point></Placemark><Placemark><name>赤水女子献17-1-22</name><Snippet maxLines="0"/><Point><coordinates>81.32086,43.92183,0</coordinates></Point></Placemark><Placemark><name>犬戎(赤兽戎宣王尸)17-1-23</name><Snippet maxLines="0"/><Point><coordinates>79.4635,43.5366,0</coordinates></Point></Placemark><Placemark><name>齐州山17-1-24</name><Snippet maxLines="0"/><Point><coordinates>65.48395,44.84923,0</coordinates></Point></Placemark><Placemark><name>一目人17-1-25</name><Snippet maxLines="0"/><Point><coordinates>69.46099,56.10872,0</coordinates></Point></Placemark><Placemark><name>继无民17-1-26</name><Snippet maxLines="0"/><Point><coordinates>83.8454,49.71617,0</coordinates></Point></Placemark><Placemark><name>中䡡国17-1-27</name><Snippet maxLines="0"/><Point><coordinates>78.38212,49.01779,0</coordinates></Point></Placemark><Placemark><name>犬戎国17-1-28</name><Snippet maxLines="0"/><Point><coordinates>71.44486,51.15221,0</coordinates></Point></Placemark><Placemark><name>苗民17-1-29</name><Snippet maxLines="0"/><Point><coordinates>73.76244,43.60557,0</coordinates></Point></Placemark><Placemark><name>洞野山17-1-30</name><Snippet maxLines="0"/><Point><coordinates>68.7552,38.58454,0</coordinates></Point></Placemark><Placemark><name>牛黎国17-1-31</name><Snippet maxLines="0"/><Point><coordinates>60.63137,41.55192,0</coordinates></Point></Placemark><Placemark><name>章尾山烛龙17-1-32</name><Snippet maxLines="0"/><Point><coordinates>73.7378,41.05043,0</coordinates></Point></Placemark><Placemark><name>壑市18-1-1</name><Snippet maxLines="0"/><Point><coordinates>77.98612,45.24859,0</coordinates></Point></Placemark><Placemark><name>汜叶18-1-2</name><Snippet maxLines="0"/><Point><coordinates>73.76244,43.60551,0</coordinates></Point></Placemark><Placemark><name>鸟山18-1-3</name><Snippet maxLines="0"/><Point><coordinates>64.26252,49.02001,0</coordinates></Point></Placemark><Placemark><name>韩流生帝颛顼18-1-4</name><Snippet maxLines="0"/><Point><coordinates>65.50042,44.84812,0</coordinates></Point></Placemark><Placemark><name>不死山18-1-5</name><Snippet maxLines="0"/><Point><coordinates>59.3513,45.14299,0</coordinates></Point></Placemark><Placemark><name>肇山柏高18-1-6</name><Snippet maxLines="0"/><Point><coordinates>71.39286,42.89967,0</coordinates></Point></Placemark><Placemark><name>都广之野18-1-7</name><Snippet maxLines="0"/><Point><coordinates>75.29472,442.8486,0</coordinates></Point></Placemark><Placemark><name>若木18-1-8</name><Snippet maxLines="0"/><Point><coordinates>71.64035,41.00757,0</coordinates></Point></Placemark><Placemark><name>灵山蝡蛇18-1-9</name><Snippet maxLines="0"/><Point><coordinates>72.80446,40.53431,0</coordinates></Point></Placemark><Placemark><name>盐长国鸟氏18-1-10</name><Snippet maxLines="0"/><Point><coordinates>73.29775,40.77165,0</coordinates></Point></Placemark><Placemark><name>窫窳、猩猩18-1-12</name><Snippet maxLines="0"/><Point><coordinates>103.763,29.55572,0</coordinates></Point></Placemark><Placemark><name>巴国18-1-13</name><Snippet maxLines="0"/><Point><coordinates>106.276,29.97212,0</coordinates></Point></Placemark><Placemark><name>流黄辛氏国18-1-14</name><Snippet maxLines="0"/><Point><coordinates>106.7589,31.85686,0</coordinates></Point></Placemark><Placemark><name>朱卷国18-1-15</name><Snippet maxLines="0"/><Point><coordinates>115.8913,28.67752,0</coordinates></Point></Placemark><Placemark><name>赣巨人18-1-16</name><Snippet maxLines="0"/><Point><coordinates>114.9151,27.039,0</coordinates></Point></Placemark><Placemark><name>黑人18-1-17</name><Snippet maxLines="0"/><Point><coordinates>114.512,26.31322,0</coordinates></Point></Placemark><Placemark><name>嬴民、封豕18-1-18</name><Snippet maxLines="0"/><Point><coordinates>117.2177,29.34606,0</coordinates></Point></Placemark><Placemark><name>苗民神延维18-1-19</name><Snippet maxLines="0"/><Point><coordinates>117.8587,29.25849,0</coordinates></Point></Placemark><Placemark><name>[山/囷]狗、孔鸟18-1-21</name><Snippet maxLines="0"/><Point><coordinates>119.6454,29.08014,0</coordinates></Point></Placemark><Placemark><name>三天子都山18-1-22</name><Snippet maxLines="0"/><Point><coordinates>119.2631,28.48184,0</coordinates></Point></Placemark><Placemark><name>苍梧丘18-1-23</name><Snippet maxLines="0"/><Point><coordinates>111.988,25.34963,0</coordinates></Point></Placemark><Placemark><name>相顾之尸18-1-26</name><Snippet maxLines="0"/><Point><coordinates>100.7188,46.19569,0</coordinates></Point></Placemark><Placemark><name>伯夷父18-1-27</name><Snippet maxLines="0"/><Point><coordinates>113.3736,49.24433,0</coordinates></Point></Placemark><Placemark><name>幽都山、大幽国18-1-28</name><Snippet maxLines="0"/><Point><coordinates>121.0651,50.99581,0</coordinates></Point></Placemark><Placemark><name>钉灵国18-1-29</name><Snippet maxLines="0"/><Point><coordinates>128.1353,51.37848,0</coordinates></Point></Placemark><Placemark><name>晏龙18-1-35</name><Snippet maxLines="0"/><Point><coordinates>121.7631,37.26963,0</coordinates></Point></Placemark><Placemark><name>巧倕、叔均18-1-37</name><Snippet maxLines="0"/><Point><coordinates>111.0655,39.25102,0</coordinates></Point></Placemark><Placemark><name>鲧窃息壤18-1-39</name><Snippet maxLines="0"/><Point><coordinates>110.3132,38.56515,0</coordinates></Point></Placemark></Document></kml>
